,CD_OSCAR,DC_NOME,FL_CAPITAL,DT_FIM_OPERACAO,CD_SITUACAO,TP_ESTACAO,VL_LATITUDE,CD_WSI,CD_DISTRITO,VL_ALTITUDE,SG_ESTADO,SG_ENTIDADE,CD_ESTACAO,VL_LONGITUDE,DT_INICIO_OPERACAO
0,0-2000-0-86765,ABROLHOS,N,,Pane,Automatica,-17.96305555,0-76-0-2906907000000408, 04,20.93,BA,INMET,A422,-38.70333333,2008-07-20T21:00:00.000-03:00
1,0-2000-0-81755,ACARAU,N,,Operante,Automatica,-3.1211111,0-76-0-2300200000000446, 03,67.15,CE,INMET,A360,-40.08722221,2009-04-21T21:00:00.000-03:00
2,0-2000-0-86827,AFONSO CLAUDIO,,,Pane,Automatica,-20.10416666,0-76-0-3200102000000478, 06,507.48,ES,INMET,A657,-41.10694444,2011-09-23T21:00:00.000-03:00
3,0-2000-0-86686,AGUA BOA,N,,Operante,Automatica,-14.01638888,0-76-0-5100201000000157, 09,440,MT,INMET,A908,-52.21166666,2006-12-15T21:00:00.000-03:00
4,0-2000-0-86812,AGUA CLARA,N,,Operante,Automatica,-20.44444444,0-76-0-5000203000000463, 07,323.63,MS,INMET,A756,-52.87583332,2010-08-13T21:00:00.000-03:00
5,0-2000-0-86716,AGUAS EMENDADAS,,,Operante,Automatica,-15.596491,0-76-0-5300108000000435, 10,1030.36,DF,INMET,A045,-47.625801,2008-10-02T21:00:00.000-03:00
6,0-2000-0-86722,AGUAS VERMELHAS,N,,Operante,Automatica,-15.75166666,0-76-0-3101003000000252, 05,754.07,MG,INMET,A549,-41.45777777,2007-09-08T21:00:00.000-03:00
7,0-2000-0-86803,AIMORES,N,,Operante,Automatica,-19.53277777,0-76-0-3101102000000239, 05,287.74,MG,INMET,A534,-41.09083333,2007-08-04T21:00:00.000-03:00
8,0-2000-0-86828,ALEGRE,N,,Operante,Automatica,-20.75055555,0-76-0-3200201000000125, 06,138,ES,INMET,A617,-41.48888888,2006-10-24T21:00:00.000-03:00
9,0-2000-0-86975,ALEGRETE,N,,Operante,Automatica,-29.70916666,0-76-0-4300406000000113, 08,120.88,RS,INMET,A826,-55.52555554,2006-09-27T21:00:00.000-03:00
10,0-2000-0-86829,ALFREDO CHAVES,N,,Pane,Automatica,-20.63638888,0-76-0-3200300000000135, 06,14.19,ES,INMET,A615,-40.74194444,2006-11-02T21:00:00.000-03:00
11,0-2000-0-86627,ALMAS,N,,Operante,Automatica,-11.28416666,0-76-0-1700400000000508, 10,503,TO,INMET,A053,-47.21222222,2016-03-31T21:00:00.000-03:00
12,0-2000-0-86743,ALMENARA,N,,Operante,Automatica,-16.16666666,0-76-0-3101706000000034, 05,189.11,MG,INMET,A508,-40.68777777,2002-12-14T22:00:00.000-02:00
13,0-2000-0-81977,ALTA FLORESTA,N,,Operante,Automatica,-10.07722221,0-76-0-5100250000000192, 09,291.85,MT,INMET,A924,-56.17916666,2007-05-22T21:00:00.000-03:00
14,0-2000-0-81738,ALTAMIRA,N,,Operante,Automatica,-3.26999999,0-76-0-1500602000000585, 02,191,PA,INMET,A253,-52.39472221,2018-10-24T21:00:00.000-03:00
15,0-2000-0-86749,ALTO ARAGUAIA,N,,Operante,Automatica,-17.33944444,0-76-0-5100300000000477, 09,753.28,MT,INMET,A909,-53.22444443,2011-09-21T21:00:00.000-03:00
16,0-2000-0-86691,ALTO PARAISO DE GOIAS,N,,Operante,Automatica,-14.13305554,0-76-0-5200605000000208, 10,1264.7,GO,INMET,A024,-47.52333332,2007-06-03T21:00:00.000-03:00
17,0-2000-0-81985,ALTO PARNAIBA,N,,Operante,Automatica,-9.10833333,0-76-0-2100501000000375, 02,283.69,MA,INMET,A223,-45.93194443,2008-06-02T21:00:00.000-03:00
18,0-2000-0-86750,ALTO TAQUARI,,,Operante,Automatica,-17.8411111,0-76-0-5100607000000284, 09,862.42,MT,INMET,A934,-53.28944444,2008-01-28T21:00:00.000-03:00
19,0-2000-0-81846,ALVORADA DO GURGUEIA,N,,Operante,Automatica,-8.37638888,0-76-0-2202307000000274, 03,225,PI,INMET,A336,-43.85944444,2007-11-16T21:00:00.000-03:00
20,0-2000-0-86894,AMAMBAI,,,Operante,Automatica,-23.0025,0-76-0-5000609000000381, 07,433.59,MS,INMET,A750,-55.32944443,2008-06-10T21:00:00.000-03:00
21,0-2000-0-86675,AMARGOSA,,,Operante,Automatica,-13.00944444,0-76-0-2901007000000398, 04,397.8,BA,INMET,A434,-39.61694443,2008-07-10T21:00:00.000-03:00
22,0-2000-0-81867,ANGICAL DO PIAUI,N,,Pane,Automatica,-6.08944444,0-76-0-2200608000000597, 03,183,PI,INMET,A377,-42.72749999,2019-11-13T21:00:00.000-03:00
23,0-2000-0-84817,ANGRA DOS REIS,N,,Operante,Automatica,-22.97555554,0-76-0-3300100000000555, 06,6,RJ,INMET,A628,-44.30333333,2017-08-24T21:00:00.000-03:00
24,0-2000-0-81976,APIACAS,N,,Operante,Automatica,-9.56333333,0-76-0-5100805000000123, 09,217.75,MT,INMET,A910,-57.3936111,2006-10-23T21:00:00.000-03:00
25,0-2000-0-81835,APODI,,,Operante,Automatica,-5.62666666,0-76-0-2401008000000272, 03,131.41,RN,INMET,A340,-37.815,2007-11-13T21:00:00.000-03:00
26,0-2000-0-81893,APUI,,,Operante,Automatica,-7.20555555,0-76-0-1300144000000406, 01,156.97,AM,INMET,A113,-59.8886111,2008-07-18T21:00:00.000-03:00
27,0-2000-0-86808,AQUIDAUANA,N,,Operante,Automatica,-20.47555554,0-76-0-5001102000000132, 07,151.35,MS,INMET,A719,-55.78388888,2006-10-31T21:00:00.000-03:00
28,0-2000-0-86616,ARACAJU,N,,Operante,Automatica,-10.9525,0-76-0-2800308000000055, 04,3.72,SE,INMET,A409,-37.05444444,2003-02-11T22:00:00.000-02:00
29,0-2000-0-86746,ARACUAI,N,,Operante,Automatica,-16.84888888,0-76-0-3103405000000548, 05,308,MG,INMET,A566,-42.03527777,2017-05-18T21:00:00.000-03:00
30,0-2000-0-86709,ARAGARCAS,N,,Operante,Automatica,-15.90277777,0-76-0-5201702000000229, 10,327.35,GO,INMET,A013,-52.24527777,2007-07-12T21:00:00.000-03:00
31,0-2000-0-86648,ARAGUACU,N,,Pane,Automatica,-12.59222221,0-76-0-1702000000000502, 10,231,TO,INMET,A054,-49.5286111,2015-08-18T21:00:00.000-03:00
32,0-2000-0-81900,ARAGUAINA,N,,Operante,Automatica,-7.10388888,0-76-0-1702109000000172, 10,230.76,TO,INMET,A021,-48.20111111,2007-01-25T21:00:00.000-03:00
33,0-2000-0-81821,ARAGUATINS,,,Operante,Automatica,-5.6436111,0-76-0-1702208000000443, 10,130.71,TO,INMET,A044,-48.11194444,2009-03-11T21:00:00.000-03:00
34,0-2000-0-81996,ARAPIRACA,N,,Operante,Automatica,-9.80444444,0-76-0-2700300000000353, 03,236.84,AL,INMET,A353,-36.61916666,2008-04-26T21:00:00.000-03:00
35,0-2000-0-86971,ARARANGUA,,,Operante,Automatica,-28.931353,0-76-0-4201406000000433, 08,2,SC,INMET,A867,-49.49792,2008-09-27T21:00:00.000-03:00
36,0-2000-0-86796,ARAXA,N,,Operante,Automatica,-19.60583333,0-76-0-3104007000000037, 05,1018.32,MG,INMET,A505,-46.94972221,2002-12-18T22:00:00.000-02:00
37,0-2000-0-81953,ARCO VERDE,N,,Operante,Automatica,-8.4336111,0-76-0-2601201000000068, 03,683.95,PE,INMET,A309,-37.05555555,2004-11-19T21:00:00.000-03:00
38,0-2000-0-81877,AREIA,N,,Operante,Automatica,-6.975451,0-76-0-2501104000000066, 03,573.45,PB,INMET,A310,-35.718128,2004-11-15T21:00:00.000-03:00
39,0-2000-0-81970,ARIQUEMES,,,Operante,Automatica,-9.94888888,0-76-0-1100023000000405, 09,128.44,RO,INMET,A940,-62.96194444,2008-07-17T21:00:00.000-03:00
40,0-2000-0-86841,ARIRANHA,N,,Operante,Automatica,-21.13305554,0-76-0-3503703000000271, 07,525.44,SP,INMET,A736,-48.84055555,2007-11-12T21:00:00.000-03:00
41,0-2000-0-86892,ARRAIAL DO CABO,N,,Operante,Automatica,-22.97527777,0-76-0-3300258000000108, 06,5,RJ,INMET,A606,-42.02138888,2006-09-21T21:00:00.000-03:00
42,0-2000-0-81732,AUTAZES,,,Operante,Automatica,-3.58333333,0-76-0-1300300000000339, 01,19.9,AM,INMET,A120,-59.12944443,2008-04-16T21:00:00.000-03:00
43,0-2000-0-86904,AVARE,N,,Operante,Automatica,-23.10166666,0-76-0-3504503000000107, 07,776.36,SP,INMET,A725,-48.9411111,2006-09-21T21:00:00.000-03:00
44,0-2000-0-81790,BACABAL,N,,Operante,Automatica,-4.24305555,0-76-0-2101202000000394, 02,22.33,MA,INMET,A220,-44.79499999,2008-07-08T21:00:00.000-03:00
45,0-2000-0-86992,BAGE,N,,Operante,Automatica,-31.34777777,0-76-0-4301602000000166, 08,226.19,RS,INMET,A827,-54.01333333,2007-01-03T21:00:00.000-03:00
46,0-2000-0-81947,BAIXA GRANDE DO RIBEIRO,N,,Operante,Automatica,-8.333531,0-76-0-2201150000000578, 03,519,PI,INMET,A375,-45.094625,2018-03-22T21:00:00.000-03:00
47,0-2000-0-81903,BALSAS,N,,Operante,Automatica,-7.45555555,0-76-0-2101400000000260, 02,271.03,MA,INMET,A204,-46.02749999,2007-10-25T21:00:00.000-03:00
48,0-2000-0-86806,BAMBUI,N,,Operante,Automatica,-20.0311111,0-76-0-3105103000000534, 05,697,MG,INMET,A565,-46.00888888,2016-11-22T21:00:00.000-03:00
49,0-2000-0-86850,BARBACENA,N,,Operante,Automatica,-21.22833332,0-76-0-3105608000000026, 05,1168.76,MG,INMET,A502,-43.76777777,2002-12-04T22:00:00.000-02:00
50,0-2000-0-81911,BARBALHA,N,,Operante,Automatica,-7.30083333,0-76-0-2301901000000202, 03,409.41,CE,INMET,A315,-39.2711111,2007-05-30T21:00:00.000-03:00
51,0-2000-0-81648,BARCELOS,N,,Operante,Automatica,-0.98722221,0-76-0-1300409000000344, 01,29.88,AM,INMET,A128,-62.92416666,2008-04-18T21:00:00.000-03:00
52,0-2000-0-86634,BARRA,N,,Operante,Automatica,-11.08472221,0-76-0-2902708000000362, 04,407.5,BA,INMET,A429,-43.13888888,2008-05-11T21:00:00.000-03:00
53,0-2000-0-86867,BARRA BONITA,,,Operante,Automatica,-22.4711111,0-76-0-3505302000000348, 07,533.68,SP,INMET,A741,-48.5575,2008-04-23T21:00:00.000-03:00
54,0-2000-0-81825,BARRA DO CORDA,N,,Pane,Automatica,-5.50666666,0-76-0-2101608000000304, 02,154.19,MA,INMET,A221,-45.23694444,2008-03-05T21:00:00.000-03:00
55,0-2000-0-86922,BARRA DO TURVO,,,Operante,Automatica,-24.96277777,0-76-0-3505401000000393, 07,659.89,SP,INMET,A746,-48.41638888,2008-07-02T21:00:00.000-03:00
56,0-2000-0-86652,BARREIRAS,N,,Operante,Automatica,-12.12472221,0-76-0-2903201000000018, 04,474.17,BA,INMET,A402,-45.02694443,2001-12-19T22:00:00.000-02:00
57,0-2000-0-86816,BARRETOS,N,,Operante,Automatica,-20.55916666,0-76-0-3505500000000460, 07,534.36,SP,INMET,A748,-48.54499999,2010-06-18T21:00:00.000-03:00
58,0-2000-0-86908,BARUERI,,,Operante,Automatica,-23.52388888,0-76-0-3510609000000470, 07,776.5,SP,INMET,A755,-46.86944443,2011-03-28T21:00:00.000-03:00
59,0-2000-0-86837,BATAGUASSU,,,Operante,Automatica,-21.75,0-76-0-5001904000000492, 07,392.13,MS,INMET,A759,-52.47138888,2013-03-20T21:00:00.000-03:00
60,0-2000-0-86865,BAURU,N,,Operante,Automatica,-22.358052,0-76-0-3506003000000010, 07,636.17,SP,INMET,A705,-49.028877,2001-08-29T21:00:00.000-03:00
61,0-2000-0-84806,BEBEDOURO,N,,Operante,Automatica,-20.94805555,0-76-0-3506102000000528, 07,542,SP,INMET,A764,-48.47138888,2016-10-26T21:00:00.000-03:00
62,0-2000-0-81680,BELEM,N,,Operante,Automatica,-1.411228,0-76-0-1501402000000042, 02,21.17,PA,INMET,A201,-48.439512,2003-01-19T22:00:00.000-02:00
63,0-2000-0-86744,BELMONTE,N,,Operante,Automatica,-16.08805555,0-76-0-2903409000000453, 04,89.67,BA,INMET,A447,-39.21527777,2009-07-01T21:00:00.000-03:00
64,0-2000-0-86800,BELO HORIZONTE (PAMPULHA),N,,Operante,Automatica,-19.88388888,0-76-0-3106200000000116, 05,854.02,MG,INMET,A521,-43.96944443,2006-10-09T21:00:00.000-03:00
65,0-2000-0-86799,BELO HORIZONTE - CERCADINHO,N,,Operante,Automatica,-19.97999999,0-76-0-3106200000000597, 05,1199.55,MG,INMET,F501,-43.95861111,2013-12-26T21:00:00.000-03:00
66,0-2000-0-86979,BENTO GONCALVES,N,,Operante,Automatica,-29.164581,0-76-0-4302105000000152, 08,623.27,RS,INMET,A840,-51.534202,2006-11-30T21:00:00.000-03:00
67,0-2000-0-86900,BERTIOGA,N,,Operante,Automatica,-23.84472221,0-76-0-3506359000000536, 07,5,SP,INMET,A765,-46.14333333,2017-01-31T21:00:00.000-03:00
68,0-2000-0-81615,BOA VISTA,,,Operante,Automatica,2.81694443,0-76-0-1400100000000465, 01,82.35,RR,INMET,A135,-60.69083333,2010-08-25T21:00:00.000-03:00
69,0-2000-0-81927,BOCA DO ACRE,N,,Operante,Automatica,-8.77666666,0-76-0-1300706000000400, 01,111.98,AM,INMET,A110,-67.33249999,2008-07-14T21:00:00.000-03:00
70,0-2000-0-86968,BOM JARDIM DA SERRA - MORRO DA IGREJA,N,,Operante,Automatica,-28.12694443,0-76-0-4218905000000213, 08,1790.38,SC,INMET,A845,-49.47972221,2007-06-16T21:00:00.000-03:00
71,0-2000-0-86672,BOM JESUS DA LAPA,N,,Operante,Automatica,-13.25111111,0-76-0-2903904000000186, 04,447.75,BA,INMET,A418,-43.40527777,2007-05-17T21:00:00.000-03:00
72,0-2000-0-81987,BOM JESUS DO PIAUI,N,,Operante,Automatica,-9.07999999,0-76-0-2201903000000231, 03,288,PI,INMET,A326,-44.32777777,2007-07-16T21:00:00.000-03:00
73,0-2000-0-81685,BRAGANCA,,,Operante,Automatica,-1.05583333,0-76-0-1501709000000313, 02,5.6,PA,INMET,A226,-46.78277777,2008-03-10T21:00:00.000-03:00
74,0-2000-0-84822,BRAGANCA PAULISTA,N,,Operante,Automatica,-22.94916666,0-76-0-3507605000000569, 07,880,SP,INMET,A744,-46.5261111,2017-12-19T21:00:00.000-03:00
75,0-2000-0-86715,BRASILIA,N,,Operante,Automatica,-15.78944444,0-76-0-5300108000000001, 10,1160.96,DF,INMET,A001,-47.92583332,2000-05-06T21:00:00.000-03:00
76,0-2000-0-86643,BRASNORTE (NOVO MUNDO),,,Operante,Automatica,-12.52194443,0-76-0-5101902000000298, 09,426.2,MT,INMET,A927,-58.23138888,2008-02-28T21:00:00.000-03:00
77,0-2000-0-86708,BRAZLANDIA,N,,Operante,Automatica,-15.59972221,0-76-0-5300108000000551, 10,1143,DF,INMET,A042,-48.1311111,2017-07-18T21:00:00.000-03:00
78,0-2000-0-86618,BREJO GRANDE,,,Operante,Automatica,-10.47388888,0-76-0-2800704000000402, 04,6.11,SE,INMET,A421,-36.48194443,2008-07-16T21:00:00.000-03:00
79,0-2000-0-81673,BREVES,N,,Pane,Automatica,-1.68027777,0-76-0-1501808000000561, 02,11,PA,INMET,A228,-50.47805554,2017-10-19T21:00:00.000-03:00
80,0-2000-0-86696,BRUMADO,,,Operante,Automatica,-14.18194443,0-76-0-2904605000000354, 04,473.37,BA,INMET,A433,-41.67222221,2008-04-27T21:00:00.000-03:00
81,0-2000-0-81788,BURITICUPU,N,,Operante,Automatica,-4.32055554,0-76-0-2102325000000427, 02,174.91,MA,INMET,A238,-46.44944444,2008-09-10T21:00:00.000-03:00
82,0-2000-0-86609,BURITIRAMA,N,,Pane,Automatica,-10.72305554,0-76-0-2904753000000363, 04,506.06,BA,INMET,A432,-43.65111111,2008-05-14T21:00:00.000-03:00
83,0-2000-0-86718,BURITIS,N,,Operante,Automatica,-15.52416666,0-76-0-3109303000000214, 05,894,MG,INMET,A544,-46.43555555,2007-06-18T21:00:00.000-03:00
84,0-2000-0-81915,CABACEIRAS,N,,Operante,Automatica,-7.48333333,0-76-0-2503100000000295, 03,391.96,PB,INMET,A348,-36.28638888,2008-02-27T21:00:00.000-03:00
85,0-2000-0-81951,CABROBO,N,,Operante,Automatica,-8.50388888,0-76-0-2603009000000250, 03,342.74,PE,INMET,A329,-39.31527777,2007-09-03T21:00:00.000-03:00
86,0-2000-0-86943,CACADOR,N,,Operante,Automatica,-26.819156,0-76-0-4203006000000319, 08,944.26,SC,INMET,A859,-50.98552,2008-03-18T21:00:00.000-03:00
87,0-2000-0-86986,CACAPAVA DO SUL,N,,Operante,Automatica,-30.54527777,0-76-0-4302808000000079, 08,420.82,RS,INMET,A812,-53.46694443,2006-06-21T21:00:00.000-03:00
88,0-2000-0-84820,CACHOEIRA PAULISTA,N,,Operante,Automatica,-22.68888888,0-76-0-3508603000000562, 07,586,SP,INMET,A769,-45.00555555,2017-10-19T21:00:00.000-03:00
89,0-2000-0-86622,CACOAL,,,Operante,Automatica,-11.44583333,0-76-0-1100049000000407, 09,183.53,RO,INMET,A939,-61.43416666,2008-07-19T21:00:00.000-03:00
90,0-2000-0-86730,CAIAPONIA,N,,Operante,Automatica,-16.96694443,0-76-0-5204409000000188, 10,740.1,GO,INMET,A023,-51.81749999,2007-05-20T21:00:00.000-03:00
91,0-2000-0-81875,CAICO,N,,Operante,Automatica,-6.46749999,0-76-0-2402006000000168, 03,171.26,RN,INMET,A316,-37.08499999,2007-01-06T21:00:00.000-03:00
92,0-2000-0-81838,CALCANHAR,N,,Pane,Automatica,-5.16,0-76-0-2414407000000360, 03,9.82,RN,INMET,A344,-35.48749999,2008-05-07T21:00:00.000-03:00
93,0-2000-0-86846,CALDAS,N,,Operante,Automatica,-21.918066,0-76-0-3110301000000148, 05,1077.34,MG,INMET,A530,-46.382996,2006-11-27T21:00:00.000-03:00
94,0-2000-0-86989,CAMAQUA,N,,Operante,Automatica,-30.807953,0-76-0-4303509000000155, 08,92.3,RS,INMET,A838,-51.83424,2006-12-11T21:00:00.000-03:00
95,0-2000-0-81878,CAMARATUBA,,,Operante,Automatica,-6.56194444,0-76-0-2509305000000359, 03,135.51,PB,INMET,A352,-35.13527777,2008-05-03T21:00:00.000-03:00
96,0-2000-0-84808,CAMBARA DO SUL,N,,Operante,Automatica,-29.04916666,0-76-0-4303608000000535, 08,1017,RS,INMET,A897,-50.14972221,2016-11-23T21:00:00.000-03:00
97,0-2000-0-86854,CAMBUCI,N,,Operante,Automatica,-21.58749999,0-76-0-3300902000000025, 06,46,RJ,INMET,A604,-41.95833333,2002-11-19T22:00:00.000-02:00
98,0-2000-0-81710,CAMETA,N,,Pane,Automatica,-2.23972221,0-76-0-1502103000000386, 02,9.92,PA,INMET,A236,-49.49972221,2008-06-19T21:00:00.000-03:00
99,0-2000-0-86918,CAMPINA DA LAGOA,N,,Operante,Automatica,-24.57083332,0-76-0-4103909000000524, 08,598,PR,INMET,B803,-52.80027777,2016-08-03T21:00:00.000-03:00
100,0-2000-0-81916,CAMPINA GRANDE,N,,Pane,Automatica,-7.22555554,0-76-0-2504009000000165, 03,546.17,PB,INMET,A313,-35.90472222,2006-12-21T21:00:00.000-03:00
101,0-2000-0-86793,CAMPINA VERDE,N,,Operante,Automatica,-19.53921,0-76-0-3111101000000085, 05,559.07,MG,INMET,A519,-49.518133,2006-07-14T21:00:00.000-03:00
102,0-2000-0-86991,CAMPO BOM,,,Operante,Automatica,-29.674293,0-76-0-4303905000000494, 08,23.35,RS,INMET,A884,-51.064042,2013-11-28T21:00:00.000-03:00
103,0-2000-0-86810,CAMPO GRANDE,N,,Operante,Automatica,-20.447195,0-76-0-5002704000000013, 07,528.47,MS,INMET,A702,-54.722615,2001-09-09T21:00:00.000-03:00
104,0-2000-0-81795,CAMPO MAIOR,N,,Operante,Automatica,-4.86416666,0-76-0-2202208000000586, 03,125,PI,INMET,A376,-42.14555555,2018-11-22T21:00:00.000-03:00
105,0-2000-0-86662,CAMPO NOVO DOS PARECIS,N,,Operante,Automatica,-13.78583333,0-76-0-5102637000000033, 09,525.41,MT,INMET,A905,-57.8386111,2002-12-12T22:00:00.000-02:00
106,0-2000-0-86707,CAMPO VERDE,N,,Operante,Automatica,-15.55888888,0-76-0-5102678000000143, 09,747,MT,INMET,A912,-55.17944443,2006-11-20T21:00:00.000-03:00
107,0-2000-0-86872,CAMPOS DO JORDAO,N,,Operante,Automatica,-22.75027777,0-76-0-3509700000000019, 07,1662.95,SP,INMET,A706,-45.60388888,2002-03-12T21:00:00.000-03:00
108,0-2000-0-86855,CAMPOS DOS GOYTACAZES,N,,Operante,Automatica,-21.71472222,0-76-0-3301009000000109, 06,17,RJ,INMET,A607,-41.34388888,2006-09-24T21:00:00.000-03:00
109,0-2000-0-86890,CAMPOS DOS GOYTACAZES - SAO TOME,N,,Operante,Automatica,-22.04166666,0-76-0-3301009000000382, 06,7,RJ,INMET,A620,-41.05166666,2008-06-12T21:00:00.000-03:00
110,0-2000-0-81902,CAMPOS LINDOS,N,,Pane,Automatica,-8.15472222,0-76-0-1703842000000487, 10,426.56,TO,INMET,A043,-46.63944444,2012-10-28T21:00:00.000-03:00
111,0-2000-0-84826,CAMPOS NOVOS,N,,Operante,Automatica,-27.3886111,0-76-0-4203600000000587, 08,963,SC,INMET,A898,-51.21583333,2019-02-14T21:00:00.000-03:00
112,0-2000-0-81909,CAMPOS SALES,N,,Operante,Automatica,-7.07777777,0-76-0-2302701000000307, 03,577.95,CE,INMET,A347,-40.36277777,2008-03-06T21:00:00.000-03:00
113,0-2000-0-86980,CANELA,,,Operante,Automatica,-29.36888888,0-76-0-4304408000000415, 08,830.93,RS,INMET,A879,-50.82722221,2008-08-22T21:00:00.000-03:00
114,0-2000-0-86993,CANGUCU,N,,Operante,Automatica,-31.40333333,0-76-0-4304507000000171, 08,446.81,RS,INMET,A811,-52.70083333,2007-01-23T21:00:00.000-03:00
115,0-2000-0-81847,CANTO DO BURITI,,,Operante,Automatica,-8.11805554,0-76-0-2202307000000459, 03,312.07,PI,INMET,A365,-42.97583332,2010-06-11T21:00:00.000-03:00
116,0-2000-0-84829,CAPAO DO LEAO (PELOTAS),N,,Operante,Automatica,-31.8025,0-76-0-4304663000000595, 08,13,RS,INMET,A887,-52.40722222,2019-07-17T21:00:00.000-03:00
117,0-2000-0-86761,CAPELINHA,N,,Operante,Automatica,-17.70555555,0-76-0-3112307000000248, 05,932.06,MG,INMET,A541,-42.38916666,2007-08-30T21:00:00.000-03:00
118,0-2000-0-81684,CAPITAO POCO,,,Operante,Automatica,-1.73472221,0-76-0-1502301000000473, 02,79.1,PA,INMET,A248,-47.0575,2011-04-17T21:00:00.000-03:00
119,0-2000-0-81988,CARACOL,N,,Operante,Automatica,-9.28583333,0-76-0-2202505000000268, 03,515.3,PI,INMET,A337,-43.32444443,2007-11-09T21:00:00.000-03:00
120,0-2000-0-86802,CARATINGA,,,Operante,Automatica,-19.73583333,0-76-0-3113404000000193, 05,609.25,MG,INMET,A554,-42.13722221,2007-05-23T21:00:00.000-03:00
121,0-2000-0-86764,CARAVELAS,N,,Operante,Automatica,-17.73944444,0-76-0-2906907000000039, 04,6.05,BA,INMET,A405,-39.25861111,2002-12-19T22:00:00.000-02:00
122,0-2000-0-81978,CARLINDA,,,Operante,Automatica,-9.97055554,0-76-0-5102793000000330, 09,293.71,MT,INMET,A926,-55.82749999,2008-04-08T21:00:00.000-03:00
123,0-2000-0-84824,CARMO,N,,Operante,Automatica,-21.9386111,0-76-0-3301207000000583, 06,293,RJ,INMET,A629,-42.60083333,2018-10-10T21:00:00.000-03:00
124,0-2000-0-81901,CAROLINA,,,Pane,Automatica,-7.33722221,0-76-0-2102804000000279, 02,182.88,MA,INMET,A205,-47.45972222,2007-12-03T21:00:00.000-03:00
125,0-2000-0-81956,CARUARU,,,Operante,Automatica,-8.36527777,0-76-0-2604106000000276, 03,852,PE,INMET,A341,-36.02833332,2007-11-20T21:00:00.000-03:00
126,0-2000-0-86844,CASA BRANCA,N,,Operante,Automatica,-21.78055554,0-76-0-3510807000000216, 07,734.15,SP,INMET,A738,-47.07527777,2007-06-24T21:00:00.000-03:00
127,0-2000-0-86791,CASSILANDIA,,,Operante,Automatica,-19.12249999,0-76-0-5002902000000308, 07,494.72,MS,INMET,A742,-51.72083332,2008-03-07T21:00:00.000-03:00
128,0-2000-0-81682,CASTANHAL,N,,Operante,Automatica,-1.30083333,0-76-0-1502400000000044, 02,47.13,PA,INMET,A202,-47.94805555,2003-01-23T22:00:00.000-02:00
129,0-2000-0-81829,CASTELO DO PIAUI,N,,Operante,Automatica,-5.34916666,0-76-0-2202604000000445, 03,268.75,PI,INMET,A361,-41.51222222,2009-04-19T21:00:00.000-03:00
130,0-2000-0-86921,CASTRO,N,,Pane,Automatica,-24.77999999,0-76-0-4104907000000081, 08,1016,PR,INMET,A819,-50.04638888,2006-07-08T21:00:00.000-03:00
131,0-2000-0-86777,CATALAO,N,,Operante,Automatica,-18.154779,0-76-0-5205109000000286, 10,900.72,GO,INMET,A034,-47.927614,2008-01-30T21:00:00.000-03:00
132,0-2000-0-81792,CAXIAS,N,,Operante,Automatica,-4.82138888,0-76-0-2103000000000399, 02,84.85,MA,INMET,A237,-43.3436111,2008-07-12T21:00:00.000-03:00
133,0-2000-0-86719,CHAPADA GAUCHA,N,,Operante,Automatica,-15.30027777,0-76-0-3116159000000215, 05,873.2,MG,INMET,A548,-45.61749999,2007-06-21T21:00:00.000-03:00
134,0-2000-0-86772,CHAPADAO DO SUL,N,,Operante,Automatica,-18.80222222,0-76-0-5002951000000163, 07,820.82,MS,INMET,A730,-52.6025,2006-12-19T21:00:00.000-03:00
135,0-2000-0-81749,CHAPADINHA,N,,Operante,Automatica,-3.74277777,0-76-0-2103208000000430, 02,104,MA,INMET,A206,-43.35222222,2008-09-16T21:00:00.000-03:00
136,0-2000-0-84827,CHAPECO,N,,Operante,Automatica,-27.0853111,0-76-0-4204202000000588, 08,679,SC,INMET,A895,-52.6357111,2019-02-18T21:00:00.000-03:00
137,0-2000-0-86898,CIDADE GAUCHA,N,,Operante,Automatica,-23.35916666,0-76-0-4105607000000314, 08,365.79,PR,INMET,A869,-52.93194443,2008-03-10T21:00:00.000-03:00
138,0-2000-0-86939,CLEVELANDIA,,,Operante,Automatica,-26.41722221,0-76-0-4105706000000364, 08,966.06,PR,INMET,A876,-52.3486111,2008-05-14T21:00:00.000-03:00
139,0-2000-0-81770,COARI,,,Operante,Automatica,-4.09749999,0-76-0-1301209000000335, 01,33.84,AM,INMET,A117,-63.14527777,2008-04-11T21:00:00.000-03:00
140,0-2000-0-81866,COLINAS,N,,Operante,Automatica,-6.03305554,0-76-0-2103505000000374, 02,175.37,MA,INMET,A222,-44.23333333,2008-06-02T21:00:00.000-03:00
141,0-2000-0-81939,COLINAS DO TOCANTINS,N,,Operante,Automatica,-8.092708,0-76-0-1705508000000530, 10,200,TO,INMET,A049,-48.478605,2016-11-10T21:00:00.000-03:00
142,0-2000-0-86928,COLOMBO,N,,Operante,Automatica,-25.322464,0-76-0-4105805000000516, 08,950,PR,INMET,B806,-49.157733,2016-05-31T21:00:00.000-03:00
143,0-2000-0-86661,COMODORO,N,,Operante,Automatica,-13.70805555,0-76-0-5103304000000149, 09,576.87,MT,INMET,A913,-59.7625,2006-11-27T21:00:00.000-03:00
144,0-2000-0-86794,CONCEICAO DAS ALAGOAS,N,,Operante,Automatica,-19.98586,0-76-0-3117306000000087, 05,572.54,MG,INMET,A520,-48.151574,2006-07-17T21:00:00.000-03:00
145,0-2000-0-81940,CONCEICAO DO ARAGUAIA,,,Operante,Automatica,-8.30361111,0-76-0-1502707000000419, 02,175.74,PA,INMET,A241,-49.28277777,2008-09-03T21:00:00.000-03:00
146,0-2000-0-86639,CONDE,N,,Operante,Automatica,-12.03583333,0-76-0-2908606000000329, 04,31.9,BA,INMET,A431,-37.68388888,2008-04-06T21:00:00.000-03:00
147,0-2000-0-86822,CORONEL PACHECO,,,Operante,Automatica,-21.54666666,0-76-0-3119609000000485, 05,411.14,MG,INMET,A557,-43.26111111,2012-10-16T21:00:00.000-03:00
148,0-2000-0-86617,CORRENTE,N,,Operante,Automatica,-10.42916666,0-76-0-2202901000000579, 03,452,PI,INMET,A374,-45.17305554,2018-03-27T21:00:00.000-03:00
149,0-2000-0-86671,CORRENTINA,N,,Operante,Automatica,-13.33249999,0-76-0-2909307000000266, 04,551.71,BA,INMET,A416,-44.61749999,2007-11-08T21:00:00.000-03:00
150,0-2000-0-86767,CORUMBA,N,,Operante,Automatica,-18.99666666,0-76-0-5003207000000126, 07,111.73,MS,INMET,A724,-57.63749999,2006-10-25T21:00:00.000-03:00
151,0-2000-0-86619,CORURIPE,N,,Operante,Automatica,-10.1286111,0-76-0-2702306000000422, 03,82.39,AL,INMET,A355,-36.28638888,2008-09-05T21:00:00.000-03:00
152,0-2000-0-86771,COSTA RICA,,,Operante,Automatica,-18.49277777,0-76-0-5003256000000490, 07,727.34,MS,INMET,A760,-53.17138888,2012-12-03T21:00:00.000-03:00
153,0-2000-0-81975,COTRIGUACU,N,,Operante,Automatica,-9.90638888,0-76-0-5103379000000199, 09,265,MT,INMET,A919,-58.57222221,2007-05-27T21:00:00.000-03:00
154,0-2000-0-86770,COXIM,N,,Operante,Automatica,-18.51222222,0-76-0-5003306000000136, 07,251.48,MS,INMET,A720,-54.7361111,2006-11-05T21:00:00.000-03:00
155,0-2000-0-81830,CRATEUS,N,,Operante,Automatica,-5.18666666,0-76-0-2304103000000439, 03,298.19,CE,INMET,A342,-40.67222221,2008-12-10T21:00:00.000-03:00
156,0-2000-0-86737,CRISTALINA,,,Operante,Automatica,-16.78499999,0-76-0-5206206000000280, 10,1211.08,GO,INMET,A036,-47.61305555,2007-12-13T21:00:00.000-03:00
157,0-2000-0-86727,CRISTALINA (FAZENDA SANTA MONICA),N,,Operante,Automatica,-16.39944444,0-76-0-5206206000000570, 10,932,GO,INMET,A056,-47.62583332,2018-01-24T21:00:00.000-03:00
158,0-2000-0-86962,CRUZ ALTA,N,,Operante,Automatica,-28.60344,0-76-0-4306106000000203, 08,426.69,RS,INMET,A853,-53.673597,2007-05-30T21:00:00.000-03:00
159,0-2000-0-86657,CRUZ DAS ALMAS,N,,Operante,Automatica,-12.67555554,0-76-0-2909802000000041, 04,219.76,BA,INMET,A406,-39.08944444,2003-01-18T22:00:00.000-02:00
160,0-2000-0-81881,CRUZEIRO DO SUL,N,,Operante,Automatica,-7.61055555,0-76-0-1200203000000498, 01,220,AC,INMET,A108,-72.6811111,2015-05-13T21:00:00.000-03:00
161,0-2000-0-86705,CUIABA,N,,Operante,Automatica,-15.559295,0-76-0-5108402000000028, 09,241.56,MT,INMET,A901,-56.062951,2002-12-07T22:00:00.000-02:00
162,0-2000-0-81984,CURACA,N,,Operante,Automatica,-9.00138888,0-76-0-2909901000000503, 04,370,BA,INMET,A448,-39.9125,2015-08-19T21:00:00.000-03:00
163,0-2000-0-86933,CURITIBA,N,,Operante,Automatica,-25.4486111,0-76-0-4106902000000046, 08,922.91,PR,INMET,A807,-49.23055554,2003-01-27T22:00:00.000-02:00
164,0-2000-0-86956,CURITIBANOS,N,,Operante,Automatica,-27.2886111,0-76-0-4204806000000296, 08,978.1,SC,INMET,A860,-50.60416666,2008-02-27T21:00:00.000-03:00
165,0-2000-0-86780,CURVELO,N,,Operante,Automatica,-18.747711,0-76-0-3120904000000158, 05,669.48,MG,INMET,A538,-44.453785,2006-12-17T21:00:00.000-03:00
166,0-2000-0-86610,DELFINO,N,,Operante,Automatica,-10.455,0-76-0-2932457000000401, 04,646.24,BA,INMET,A443,-41.20694444,2008-07-14T21:00:00.000-03:00
167,0-2000-0-86861,DIAMANTE DO NORTE,N,,Operante,Automatica,-22.63944444,0-76-0-4107108000000306, 08,368.22,PR,INMET,A849,-52.89027777,2008-03-05T21:00:00.000-03:00
168,0-2000-0-86781,DIAMANTINA,N,,Operante,Automatica,-18.231052,0-76-0-3121605000000209, 05,1359.25,MG,INMET,A537,-43.648269,2007-06-04T21:00:00.000-03:00
169,0-2000-0-86632,DIANOPOLIS,N,,Operante,Automatica,-11.59444444,0-76-0-1707009000000417, 10,727.87,TO,INMET,A038,-46.84722221,2008-08-29T21:00:00.000-03:00
170,0-2000-0-86936,DIONISIO CERQUEIRA,N,,Operante,Automatica,-26.286562,0-76-0-4205001000000372, 08,807.54,SC,INMET,A848,-53.633114,2008-05-30T21:00:00.000-03:00
171,0-2000-0-84821,DIVINOPOLIS,N,,Operante,Automatica,-20.17333332,0-76-0-3122306000000565, 05,796,MG,INMET,A564,-44.87499999,2017-10-25T21:00:00.000-03:00
172,0-2000-0-86927,DOIS VIZINHOS,N,,Operante,Automatica,-25.69916666,0-76-0-4107207000000178, 08,545.95,PR,INMET,A843,-53.09527777,2007-03-28T21:00:00.000-03:00
173,0-2000-0-81782,DOM ELISEU,N,,Operante,Automatica,-4.28055554,0-76-0-1502939000000571, 02,251,PA,INMET,A252,-47.56388888,2018-03-07T21:00:00.000-03:00
174,0-2000-0-86985,DOM PEDRITO,,,Operante,Automatica,-31.0025,0-76-0-4306601000000458, 08,150,RS,INMET,A881,-54.61805554,2010-04-22T21:00:00.000-03:00
175,0-2000-0-86797,DORES DO INDAIA,N,,Operante,Automatica,-19.48194443,0-76-0-3123205000000205, 05,721.09,MG,INMET,A536,-45.59388888,2007-05-31T21:00:00.000-03:00
176,0-2000-0-86858,DOURADOS,N,,Operante,Automatica,-22.19388888,0-76-0-5003702000000118, 07,463.3,MS,INMET,A721,-54.91138888,2006-10-17T21:00:00.000-03:00
177,0-2000-0-84807,DRACENA,N,,Operante,Automatica,-21.45777777,0-76-0-3514403000000529, 07,383,SP,INMET,A762,-51.55222222,2016-11-02T21:00:00.000-03:00
178,0-2000-0-86877,DUQUE DE CAXIAS - XEREM,N,,Operante,Automatica,-22.58972221,0-76-0-3301702000000022, 06,22,RJ,INMET,A603,-43.28222221,2002-10-20T21:00:00.000-03:00
179,0-2000-0-86766,ECOPORANGA,N,,Operante,Automatica,-18.29138888,0-76-0-3202108000000541, 06,224,ES,INMET,A631,-40.73638888,2017-03-16T21:00:00.000-03:00
180,0-2000-0-86754,EDEIA,N,,Operante,Automatica,-17.33694444,0-76-0-5207402000000556, 10,608,GO,INMET,A029,-49.91472222,2017-08-25T21:00:00.000-03:00
181,0-2000-0-81843,EIRUNEPE,N,,Pane,Automatica,-6.65027777,0-76-0-1301407000000483, 01,121.54,AM,INMET,A109,-69.8686111,2012-08-30T21:00:00.000-03:00
182,0-2000-0-86997,ENCRUZILHADA DO SUL,N,,Operante,Automatica,-30.54305555,0-76-0-4306908000000575, 08,427.75,RS,INMET,A893,-52.52472221,2018-03-14T21:00:00.000-03:00
183,0-2000-0-86620,EPITACIOLANDIA,,,Operante,Automatica,-11.02388888,0-76-0-1200252000000455, 01,224.5,AC,INMET,A140,-68.73527777,2009-09-24T21:00:00.000-03:00
184,0-2000-0-86954,ERECHIM,N,,Operante,Automatica,-27.65777777,0-76-0-4307005000000146, 08,777.08,RS,INMET,A828,-52.30583333,2006-11-24T21:00:00.000-03:00
185,0-2000-0-86695,ESPINOSA,N,,Operante,Automatica,-14.91222222,0-76-0-3124302000000273, 05,565.36,MG,INMET,A543,-42.80861111,2007-11-13T21:00:00.000-03:00
186,0-2000-0-81863,ESTREITO,,,Operante,Automatica,-6.65333333,0-76-0-2104057000000293, 02,182.96,MA,INMET,A224,-47.41833332,2008-02-26T21:00:00.000-03:00
187,0-2000-0-86613,EUCLIDES DA CUNHA,,,Operante,Automatica,-10.53722221,0-76-0-2910701000000326, 04,431.96,BA,INMET,A442,-38.99666666,2008-03-30T21:00:00.000-03:00
188,0-2000-0-81716,FAROL de SANTANA,N,,Pane,Automatica,-2.27083332,0-76-0-2105005000000438, 02,9.87,MA,INMET,A217,-43.62416666,2008-11-27T21:00:00.000-03:00
189,0-2000-0-81924,FEIJO,,,Operante,Automatica,-8.14277777,0-76-0-1200302000000454, 01,157.17,AC,INMET,A138,-70.3436111,2009-09-23T21:00:00.000-03:00
190,0-2000-0-86658,FEIRA DE SANTANA,N,,Operante,Automatica,-12.1961111,0-76-0-2910800000000195, 04,229.64,BA,INMET,A413,-38.96749999,2007-05-25T21:00:00.000-03:00
191,0-2000-0-81952,FLORESTA,N,,Operante,Automatica,-8.59888888,0-76-0-2605707000000429, 03,327.42,PE,INMET,A351,-38.58416666,2008-09-14T21:00:00.000-03:00
192,0-2000-0-86798,FLORESTAL,N,,Operante,Automatica,-19.88527777,0-76-0-3126000000000392, 05,753.5,MG,INMET,A535,-44.41694443,2008-06-26T21:00:00.000-03:00
193,0-2000-0-81868,FLORIANO,N,,Operante,Automatica,-6.76138888,0-76-0-2203909000000067, 03,126.39,PI,INMET,A311,-43.00333333,2004-11-17T21:00:00.000-03:00
194,0-2000-0-86958,FLORIANOPOLIS,N,,Operante,Automatica,-27.6025,0-76-0-4216602000000043, 08,4.87,SC,INMET,A806,-48.61999999,2003-01-21T22:00:00.000-02:00
195,0-2000-0-86820,FORMIGA,N,,Operante,Automatica,-20.455,0-76-0-3126109000000094, 05,878.14,MG,INMET,A524,-45.45388888,2006-08-16T21:00:00.000-03:00
196,0-2000-0-86623,FORMOSA DO RIO PRETO,N,,Operante,Automatica,-11.05222222,0-76-0-2911105000000517, 04,488,BA,INMET,A452,-45.20083333,2016-06-01T21:00:00.000-03:00
197,0-2000-0-86629,FORMOSO DO ARAGUAIA,N,,Operante,Automatica,-11.88749999,0-76-0-1708205000000351, 10,215.2,TO,INMET,A039,-49.60833333,2008-04-26T21:00:00.000-03:00
198,0-2000-0-81758,FORTALEZA,N,,Operante,Automatica,-3.81583333,0-76-0-2304400000000057, 03,29.55,CE,INMET,A305,-38.53777777,2003-02-17T21:00:00.000-03:00
199,0-2000-0-86925,FOZ DO IGUACU,N,,Operante,Automatica,-25.60194444,0-76-0-4108304000000288, 08,235.09,PR,INMET,A846,-54.48305554,2008-02-14T21:00:00.000-03:00
200,0-2000-0-86818,FRANCA,N,,Operante,Automatica,-20.58444444,0-76-0-3516200000000031, 07,1002.74,SP,INMET,A708,-47.38249999,2002-12-11T22:00:00.000-02:00
201,0-2000-0-86951,FREDERICO WESTPHALEN,N,,Operante,Automatica,-27.39555555,0-76-0-4308508000000281, 08,489.42,RS,INMET,A854,-53.42944443,2007-12-13T21:00:00.000-03:00
202,0-2000-0-86717,GAMA (PONTE ALTA),N,,Operante,Automatica,-15.93527777,0-76-0-5300108000000496, 10,990,DF,INMET,A046,-48.13749999,2014-09-30T21:00:00.000-03:00
203,0-2000-0-81955,GARANHUNS,N,,Operante,Automatica,-8.91083333,0-76-0-2606002000000222, 03,827.78,PE,INMET,A322,-36.49333333,2007-07-07T21:00:00.000-03:00
204,0-2000-0-86666,GAUCHA DO NORTE,,,Operante,Automatica,-13.18472221,0-76-0-5103858000000377, 09,375.87,MT,INMET,A930,-53.2575,2008-06-03T21:00:00.000-03:00
205,0-2000-0-86941,GENERAL CARNEIRO,,,Operante,Automatica,-26.3986111,0-76-0-4108502000000356, 08,1009.01,PR,INMET,A875,-51.35361111,2008-04-29T21:00:00.000-03:00
206,0-2000-0-81986,GILBUES,N,,Operante,Automatica,-9.87527777,0-76-0-2204402000000447, 03,425.1,PI,INMET,A364,-45.34583333,2009-05-15T21:00:00.000-03:00
207,0-2000-0-86713,GOIANESIA,N,,Operante,Automatica,-15.22027777,0-76-0-5208608000000206, 10,667.01,GO,INMET,A022,-48.98999999,2007-06-01T21:00:00.000-03:00
208,0-2000-0-86734,GOIANIA,N,,Operante,Automatica,-16.64277777,0-76-0-5208707000000007, 10,727.3,GO,INMET,A002,-49.22027777,2001-05-28T21:00:00.000-03:00
209,0-2000-0-86712,GOIAS,N,,Pane,Automatica,-15.93972221,0-76-0-5208905000000232, 10,512.86,GO,INMET,A014,-50.14138888,2007-07-17T21:00:00.000-03:00
210,0-2000-0-86917,GOIOERE,N,,Operante,Automatica,-24.18388888,0-76-0-4108601000000119, 08,481,PR,INMET,A825,-53.04888888,2006-10-18T21:00:00.000-03:00
211,0-2000-0-86783,GOVERNADOR VALADARES,N,,Operante,Automatica,-18.830354,0-76-0-3127701000000197, 05,198.24,MG,INMET,A532,-41.977007,2007-05-26T21:00:00.000-03:00
212,0-2000-0-81823,GRAJAU,N,,Operante,Automatica,-5.81611111,0-76-0-2104800000000425, 02,232.29,MA,INMET,A207,-46.16222222,2008-09-09T21:00:00.000-03:00
213,0-2000-0-86694,GUANAMBI,N,,Pane,Automatica,-14.20805555,0-76-0-2911709000000347, 04,552.23,BA,INMET,A426,-42.74972221,2008-04-23T21:00:00.000-03:00
214,0-2000-0-86782,GUANHAES,N,,Operante,Automatica,-18.78694444,0-76-0-3128006000000207, 05,852.68,MG,INMET,A533,-42.94305555,2007-06-01T21:00:00.000-03:00
215,0-2000-0-81797,GUARAMIRANGA,N,,Pane,Automatica,-4.22916666,0-76-0-2305100000000194, 03,865.53,CE,INMET,A314,-38.95888888,2007-05-25T21:00:00.000-03:00
216,0-2000-0-81979,GUARANTA DO NORTE,N,,Operante,Automatica,-9.9525,0-76-0-5104104000000040, 09,283.58,MT,INMET,A906,-54.89777777,2002-12-19T22:00:00.000-02:00
217,0-2000-0-86757,GUARDA-MOR,N,,Operante,Automatica,-17.56138888,0-76-0-3128600000000225, 05,997.01,MG,INMET,A546,-47.19916666,2007-07-10T21:00:00.000-03:00
218,0-2000-0-86729,GUIRATINGA,,,Operante,Automatica,-16.34166666,0-76-0-5104203000000282, 09,525.43,MT,INMET,A932,-53.76611111,2008-01-23T21:00:00.000-03:00
219,0-2000-0-86630,GURUPI,N,,Operante,Automatica,-11.74499999,0-76-0-1709500000000161, 10,274,TO,INMET,A019,-49.05166666,2006-12-19T21:00:00.000-03:00
220,0-2000-0-81890,HUMAITA,,,Operante,Automatica,-7.5525,0-76-0-1301704000000349, 01,53.56,AM,INMET,A112,-63.07138888,2008-04-24T21:00:00.000-03:00
221,0-2000-0-81954,IBIMIRIM,N,,Operante,Automatica,-8.50944444,0-76-0-2606606000000436, 03,434.23,PE,INMET,A349,-37.71166666,2008-10-13T21:00:00.000-03:00
222,0-2000-0-86821,IBIRITE (ROLA MOCA),,,Operante,Automatica,-20.03138888,0-76-0-3129806000000378, 05,1198.82,MG,INMET,A555,-44.01111111,2008-06-05T21:00:00.000-03:00
223,0-2000-0-86974,IBIRUBA,,,Operante,Automatica,-28.65333333,0-76-0-4310009000000491, 08,455.27,RS,INMET,A883,-53.11194444,2012-12-12T21:00:00.000-03:00
224,0-2000-0-86843,IBITINGA,N,,Operante,Automatica,-21.85555555,0-76-0-3519600000000267, 07,496.75,SP,INMET,A737,-48.79972221,2007-11-08T21:00:00.000-03:00
225,0-2000-0-86653,IBOTIRAMA,N,,Operante,Automatica,-12.19305555,0-76-0-2913200000000355, 04,425.12,BA,INMET,A439,-43.21333333,2008-04-27T21:00:00.000-03:00
226,0-2000-0-86897,ICARAIMA,N,,Pane,Automatica,-23.39027777,0-76-0-4109906000000139, 08,381.29,PR,INMET,A824,-53.63583333,2006-11-15T21:00:00.000-03:00
227,0-2000-0-86923,IGUAPE,N,,Operante,Automatica,-24.67166666,0-76-0-3520301000000088, 07,2.7,SP,INMET,A712,-47.54583333,2006-07-19T21:00:00.000-03:00
228,0-2000-0-81873,IGUATU,N,,Operante,Automatica,-6.39638888,0-76-0-2305506000000200, 03,221.56,CE,INMET,A319,-39.26888888,2007-05-29T21:00:00.000-03:00
229,0-2000-0-86699,ILHEUS,N,,Operante,Automatica,-14.65888888,0-76-0-2913606000000045, 04,80.21,BA,INMET,A410,-39.18138888,2003-01-24T22:00:00.000-02:00
230,0-2000-0-81822,IMPERATRIZ,N,,Operante,Automatica,-5.55583333,0-76-0-2105302000000299, 02,117.96,MA,INMET,A225,-47.45972222,2008-02-29T21:00:00.000-03:00
231,0-2000-0-86929,INACIO MARTINS,N,,Operante,Automatica,-25.567879,0-76-0-4110201000000117, 08,1208.85,PR,INMET,A823,-51.077946,2006-10-15T21:00:00.000-03:00
232,0-2000-0-86946,INDAIAL,N,,Operante,Automatica,-26.91361111,0-76-0-4207502000000080, 08,72.24,SC,INMET,A817,-49.26805554,2006-07-01T21:00:00.000-03:00
233,0-2000-0-81837,IPANGUACU,N,,Operante,Automatica,-5.53499999,0-76-0-2404705000000568, 03,19,RN,INMET,A372,-36.87222221,2017-11-07T21:00:00.000-03:00
234,0-2000-0-86698,IPIAU,,,Operante,Automatica,-14.17138888,0-76-0-2913903000000452, 04,132.11,BA,INMET,A445,-39.69249999,2009-06-29T21:00:00.000-03:00
235,0-2000-0-86731,IPORA,N,,Operante,Automatica,-16.42305554,0-76-0-5210208000000493, 10,610.41,GO,INMET,A028,-51.14888888,2013-06-23T21:00:00.000-03:00
236,0-2000-0-86635,IRECE,N,,Operante,Automatica,-11.328998,0-76-0-2914604000000325, 04,768.42,BA,INMET,A424,-41.864504,2008-03-30T21:00:00.000-03:00
237,0-2000-0-86601,ITABAIANA,N,,Pane,Automatica,-10.67166666,0-76-0-2802908000000544, 04,213,SE,INMET,A451,-37.47138888,2017-04-23T21:00:00.000-03:00
238,0-2000-0-86638,ITABAIANINHA,N,,Operante,Automatica,-11.27249999,0-76-0-2803005000000191, 04,204.8,SE,INMET,A417,-37.79499999,2007-05-22T21:00:00.000-03:00
239,0-2000-0-86656,ITABERABA,N,,Operante,Automatica,-12.52416666,0-76-0-2914703000000048, 04,250.11,BA,INMET,A408,-40.29972221,2003-01-28T22:00:00.000-02:00
240,0-2000-0-81733,ITACOATIARA,,,Operante,Automatica,-3.13333333,0-76-0-1301902000000340, 01,41.54,AM,INMET,A121,-58.48277777,2008-04-16T21:00:00.000-03:00
241,0-2000-0-81778,ITAITUBA,N,,Operante,Automatica,-4.27694443,0-76-0-1503606000000290, 02,24.46,PA,INMET,A231,-55.99305555,2008-02-16T21:00:00.000-03:00
242,0-2000-0-86948,ITAJAI,,,Operante,Automatica,-26.95083333,0-76-0-4208203000000461, 08,9.76,SC,INMET,A868,-48.76194444,2010-06-23T21:00:00.000-03:00
243,0-2000-0-86760,ITAMARAJU,N,,Operante,Automatica,-17.00694444,0-76-0-2915601000000514, 04,110,BA,INMET,A455,-39.55805555,2016-05-27T21:00:00.000-03:00
244,0-2000-0-86742,ITAOBIM,N,,Operante,Automatica,-16.57555554,0-76-0-3133303000000251, 05,271.63,MG,INMET,A550,-41.48555555,2007-09-04T21:00:00.000-03:00
245,0-2000-0-86689,ITAPACI,N,,Pane,Automatica,-14.97972221,0-76-0-5210901000000173, 10,551,GO,INMET,A015,-49.53944444,2007-02-02T21:00:00.000-03:00
246,0-2000-0-86723,ITAPETINGA,,,Operante,Automatica,-15.24472221,0-76-0-2916401000000450, 04,271.48,BA,INMET,A446,-40.22944443,2009-06-24T21:00:00.000-03:00
247,0-2000-0-86905,ITAPEVA,N,,Operante,Automatica,-23.98194443,0-76-0-3522406000000090, 07,743.33,SP,INMET,A714,-48.88583333,2006-07-24T21:00:00.000-03:00
248,0-2000-0-81756,ITAPIPOCA,N,,Operante,Automatica,-3.48416666,0-76-0-2306405000000421, 03,104.49,CE,INMET,A359,-39.5886111,2008-09-04T21:00:00.000-03:00
249,0-2000-0-86869,ITAPIRA,N,,Operante,Automatica,-22.415,0-76-0-3522604000000263, 07,634.89,SP,INMET,A739,-46.80527777,2007-11-04T21:00:00.000-03:00
250,0-2000-0-86947,ITAPOA,N,,Operante,Automatica,-26.08138888,0-76-0-4208450000000210, 08,6.18,SC,INMET,A851,-48.64166666,2007-06-05T21:00:00.000-03:00
251,0-2000-0-81907,ITAPORANGA,N,,Operante,Automatica,-7.31833332,0-76-0-2507002000000567, 03,292,PB,INMET,A373,-38.14083333,2017-11-02T21:00:00.000-03:00
252,0-2000-0-86896,ITAQUIRAI,,,Operante,Automatica,-23.44944444,0-76-0-5004601000000367, 07,337.82,MS,INMET,A752,-54.18194443,2008-05-27T21:00:00.000-03:00
253,0-2000-0-81636,ITAUBAL,N,,Operante,Automatica,0.56777777,0-76-0-1600253000000554, 02,21,AP,INMET,A251,-50.8236111,2017-08-23T21:00:00.000-03:00
254,0-2000-0-86748,ITIQUIRA,,,Pane,Automatica,-17.17499999,0-76-0-5104609000000414, 09,593.12,MT,INMET,A933,-54.50166666,2008-08-13T21:00:00.000-03:00
255,0-2000-0-86674,ITIRUCU,N,,Pane,Automatica,-13.52777777,0-76-0-2916906000000053, 04,757.42,BA,INMET,A407,-40.11972221,2003-02-08T22:00:00.000-02:00
256,0-2000-0-86775,ITUIUTABA,N,,Operante,Automatica,-18.95277777,0-76-0-3134202000000076, 05,540.08,MG,INMET,A512,-49.52499999,2006-05-11T21:00:00.000-03:00
257,0-2000-0-86774,ITUMBIARA,N,,Operante,Automatica,-18.40972222,0-76-0-5211503000000261, 10,491.17,GO,INMET,A035,-49.19194444,2007-10-31T21:00:00.000-03:00
258,0-2000-0-86957,ITUPORANGA,,,Operante,Automatica,-27.41833332,0-76-0-4208500000000303, 08,479.79,SC,INMET,A863,-49.64694444,2008-03-03T21:00:00.000-03:00
259,0-2000-0-86817,ITUVERAVA,,,Operante,Automatica,-20.35972222,0-76-0-3524105000000403, 07,610.58,SP,INMET,A753,-47.77527777,2008-07-16T21:00:00.000-03:00
260,0-2000-0-86930,IVAI,N,,Pane,Automatica,-25.01083333,0-76-0-4111407000000082, 08,803.58,PR,INMET,A818,-50.85388888,2006-07-10T21:00:00.000-03:00
261,0-2000-0-86860,IVINHEMA,N,,Operante,Automatica,-22.30055555,0-76-0-5004700000000052, 07,377.36,MS,INMET,A709,-53.82277777,2003-02-07T22:00:00.000-02:00
262,0-2000-0-86636,JACOBINA,,,Operante,Automatica,-11.205,0-76-0-2917508000000357, 04,440.78,BA,INMET,A440,-40.465,2008-04-30T21:00:00.000-03:00
263,0-2000-0-86996,JAGUARAO,N,,Operante,Automatica,-32.53472221,0-76-0-4311007000000169, 08,31.48,RS,INMET,A836,-53.37583332,2007-01-08T21:00:00.000-03:00
264,0-2000-0-81833,JAGUARIBE,N,,Operante,Automatica,-5.90555555,0-76-0-2306900000000426, 03,149.31,CE,INMET,A358,-38.62777777,2008-09-09T21:00:00.000-03:00
265,0-2000-0-81798,JAGUARUANA,,,Operante,Automatica,-4.83777777,0-76-0-2307007000000269, 03,12,CE,INMET,A339,-37.69972221,2007-11-09T21:00:00.000-03:00
266,0-2000-0-86814,JALES,N,,Operante,Automatica,-20.165,0-76-0-3524808000000242, 07,460.44,SP,INMET,A733,-50.59499999,2007-08-21T21:00:00.000-03:00
267,0-2000-0-86710,JANUARIA,N,,Pane,Automatica,-15.44805555,0-76-0-3135209000000521, 05,468,MG,INMET,A559,-44.36638888,2016-06-22T21:00:00.000-03:00
268,0-2000-0-86902,JAPIRA,,,Operante,Automatica,-23.77333332,0-76-0-4109708000000297, 08,692.88,PR,INMET,A871,-50.18055554,2008-02-28T21:00:00.000-03:00
269,0-2000-0-86835,JARDIM,,,Operante,Automatica,-21.4786111,0-76-0-5005004000000474, 07,252.47,MS,INMET,A758,-56.13777777,2011-08-03T21:00:00.000-03:00
270,0-2000-0-86752,JATAI,N,,Operante,Automatica,-17.9236111,0-76-0-5211909000000190, 10,670.08,GO,INMET,A016,-51.71749999,2007-05-22T21:00:00.000-03:00
271,0-2000-0-86605,JEREMOABO,N,,Operante,Automatica,-10.08083332,0-76-0-2918100000000499, 04,261,BA,INMET,A450,-38.34583333,2015-08-12T21:00:00.000-03:00
272,0-2000-0-86955,JOACABA,N,,Operante,Automatica,-27.16916666,0-76-0-4209003000000254, 08,767.63,SC,INMET,A841,-51.55888888,2007-09-19T21:00:00.000-03:00
273,0-2000-0-81918,JOAO PESSOA,N,,Operante,Automatica,-7.16527777,0-76-0-2507507000000234, 03,33.5,PB,INMET,A320,-34.81555555,2007-07-20T21:00:00.000-03:00
274,0-2000-0-86758,JOAO PINHEIRO,N,,Operante,Automatica,-17.78444444,0-76-0-3136306000000221, 05,877.05,MG,INMET,A553,-46.11944443,2007-07-06T21:00:00.000-03:00
275,0-2000-0-86903,JOAQUIM TAVORA,N,,Pane,Automatica,-23.50527777,0-76-0-4112801000000144, 08,512.67,PR,INMET,A821,-49.94638888,2006-11-22T21:00:00.000-03:00
276,0-2000-0-86839,JOSE BONIFACIO,N,,Operante,Automatica,-21.08555555,0-76-0-3525706000000249, 07,408.35,SP,INMET,A735,-49.92027777,2007-09-02T21:00:00.000-03:00
277,0-2000-0-86625,JUARA,N,,Pane,Automatica,-11.28027777,0-76-0-5105101000000134, 09,263.43,MT,INMET,A914,-57.52666666,2006-11-01T21:00:00.000-03:00
278,0-2000-0-86624,JUINA,N,,Operante,Automatica,-11.37499999,0-76-0-5105150000000145, 09,365.39,MT,INMET,A920,-58.77472221,2006-11-23T21:00:00.000-03:00
279,0-2000-0-86851,JUIZ DE FORA,N,,Operante,Automatica,-21.769965,0-76-0-3136702000000196, 05,936.88,MG,INMET,A518,-43.364329,2007-05-25T21:00:00.000-03:00
280,0-2000-0-86859,JUTI,,,Operante,Automatica,-22.85722222,0-76-0-5005152000000384, 07,375.18,MS,INMET,A749,-54.60555555,2008-06-15T21:00:00.000-03:00
281,0-2000-0-81888,LABREA,,,Operante,Automatica,-7.26055555,0-76-0-1302405000000412, 01,61.91,AM,INMET,A111,-64.7886111,2008-07-26T21:00:00.000-03:00
282,0-2000-0-86932,LAGES,,,Operante,Automatica,-27.80222222,0-76-0-4209300000000497, 08,952.7,SC,INMET,A865,-50.33555555,2014-11-05T21:00:00.000-03:00
283,0-2000-0-86602,LAGOA DA CONFUSAO,N,,Operante,Automatica,-10.828286,0-76-0-1711902000000531, 10,178,TO,INMET,A055,-49.847882,2016-11-14T21:00:00.000-03:00
284,0-2000-0-86965,LAGOA VERMELHA,N,,Operante,Automatica,-28.222381,0-76-0-4311304000000175, 08,833.83,RS,INMET,A844,-51.512845,2007-03-01T21:00:00.000-03:00
285,0-2000-0-86949,LARANJEIRAS DO SUL,N,,Operante,Automatica,-25.37138888,0-76-0-4113304000000525, 08,889,PR,INMET,B804,-52.40083333,2016-08-06T21:00:00.000-03:00
286,0-2000-0-86654,LENCOIS,N,,Operante,Automatica,-12.55777777,0-76-0-2900702000000328, 04,438.09,BA,INMET,A425,-41.38888888,2008-04-04T21:00:00.000-03:00
287,0-2000-0-86805,LINHARES,N,,Operante,Automatica,-19.35694444,0-76-0-3203205000000128, 06,40,ES,INMET,A614,-40.0686111,2006-10-26T21:00:00.000-03:00
288,0-2000-0-86840,LINS,N,,Operante,Automatica,-21.66611111,0-76-0-3527108000000105, 07,460.65,SP,INMET,A727,-49.73472221,2006-09-19T21:00:00.000-03:00
289,0-2000-0-86651,LUIZ EDUARDO MAGALHAES,N,,Operante,Automatica,-12.1525,0-76-0-2903201000000021, 04,760.68,BA,INMET,A404,-45.82972221,2002-04-17T21:00:00.000-03:00
290,0-2000-0-86736,LUZIANIA,N,,Operante,Automatica,-16.26055555,0-76-0-5212501000000120, 10,1000.82,GO,INMET,A012,-47.96694443,2006-10-20T21:00:00.000-03:00
291,0-2000-0-86972,Laguna  - Farol de Santa Marta,N,,Operante,Automatica,-28.60444444,0-76-0-4209409000000373, 08,34.36,SC,INMET,A866,-48.81333333,2008-05-31T21:00:00.000-03:00
292,0-2000-0-86891,MACAE,N,,Operante,Automatica,-22.3761111,0-76-0-3302403000000106, 06,28,RJ,INMET,A608,-41.81194444,2006-09-21T21:00:00.000-03:00
293,0-2000-0-86655,MACAJUBA,N,,Operante,Automatica,-12.13166666,0-76-0-2919603000000049, 04,360,BA,INMET,A412,-40.35416666,2003-02-02T22:00:00.000-02:00
294,0-2000-0-81638,MACAPA,,,Operante,Automatica,0.03499999,0-76-0-1600303000000495, 02,16.62,AP,INMET,A249,-51.08888888,2013-12-11T21:00:00.000-03:00
295,0-2000-0-81836,MACAU,N,,Operante,Automatica,-5.15111111,0-76-0-2407203000000167, 03,17.37,RN,INMET,A317,-36.57305554,2007-01-05T21:00:00.000-03:00
296,0-2000-0-81998,MACEIO,N,,Operante,Automatica,-9.55111111,0-76-0-2700508000000061, 03,84.12,AL,INMET,A303,-35.77027777,2003-02-24T21:00:00.000-03:00
297,0-2000-0-84815,MACHADO,N,,Operante,Automatica,-21.680722,0-76-0-3139003000000552, 05,969,MG,INMET,A567,-45.944389,2017-07-20T21:00:00.000-03:00
298,0-2000-0-86942,MAJOR VIEIRA,,,Operante,Automatica,-26.3936111,0-76-0-4210308000000442, 08,799.58,SC,INMET,A864,-50.36333333,2009-02-08T21:00:00.000-03:00
299,0-2000-0-86916,MAL. CANDIDO RONDON,N,,Operante,Automatica,-24.53333333,0-76-0-4114609000000140, 08,392.07,PR,INMET,A820,-54.01916666,2006-11-17T21:00:00.000-03:00
300,0-2000-0-81729,MANACAPURU,,,Operante,Automatica,-3.29472221,0-76-0-1302504000000331, 01,36.57,AM,INMET,A119,-60.62833332,2008-04-09T21:00:00.000-03:00
301,0-2000-0-81730,MANAUS,N,,Operante,Automatica,-3.10333333,0-76-0-1302603000000003, 01,61.25,AM,INMET,A101,-60.01638888,2000-05-08T21:00:00.000-03:00
302,0-2000-0-86825,MANHUACU,,,Operante,Automatica,-20.26333333,0-76-0-3139409000000467, 05,819.47,MG,INMET,A556,-42.18277777,2010-09-24T21:00:00.000-03:00
303,0-2000-0-81810,MANICORE,,,Operante,Automatica,-5.7886111,0-76-0-1302702000000479, 01,40.64,AM,INMET,A133,-61.28833333,2011-12-11T22:00:00.000-02:00
304,0-2000-0-86784,MANTENA,N,,Operante,Automatica,-18.78062,0-76-0-3139607000000238, 05,254.91,MG,INMET,A540,-40.986505,2007-07-31T21:00:00.000-03:00
305,0-2000-0-81820,MARABA,,,Pane,Automatica,-5.36638888,0-76-0-1504208000000449, 02,116.58,PA,INMET,A240,-49.05111111,2009-06-24T21:00:00.000-03:00
306,0-2000-0-86834,MARACAJU,N,,Operante,Automatica,-21.60916666,0-76-0-5005400000000156, 07,388.94,MS,INMET,A731,-55.17749999,2006-12-14T21:00:00.000-03:00
307,0-2000-0-86677,MARAU,,,Pane,Automatica,-13.90694444,0-76-0-2920700000000387, 04,6.24,BA,INMET,A438,-38.97222221,2008-06-21T21:00:00.000-03:00
308,0-2000-0-81922,MARECHAL THAUMATURGO,,,Pane,Automatica,-8.95,0-76-0-1200351000000456, 01,220.98,AC,INMET,A137,-72.78666666,2009-10-26T21:00:00.000-03:00
309,0-2000-0-86871,MARIA DA FE,N,,Operante,Automatica,-22.31444444,0-76-0-3139904000000151, 05,1281.43,MG,INMET,A531,-45.37305554,2006-11-30T21:00:00.000-03:00
310,0-2000-0-81983,MARIANOPOLIS DO TO,N,,Operante,Automatica,-9.57638888,0-76-0-1712504000000488, 10,186.69,TO,INMET,A041,-49.72333332,2012-11-23T21:00:00.000-03:00
311,0-2000-0-84810,MARILANDIA,N,,Operante,Automatica,-19.40722222,0-76-0-3203353000000542, 06,95,ES,INMET,A632,-40.53972221,2017-03-21T21:00:00.000-03:00
312,0-2000-0-84813,MARILIA,N,,Operante,Automatica,-22.235222,0-76-0-3529005000000547, 07,660,SP,INMET,A763,-49.965111,2017-05-14T21:00:00.000-03:00
313,0-2000-0-86899,MARINGA,N,,Operante,Automatica,-23.40527777,0-76-0-4115200000000142, 08,548.51,PR,INMET,A835,-51.93277777,2006-11-20T21:00:00.000-03:00
314,0-2000-0-86608,MATEIROS,N,,Operante,Automatica,-10.43444444,0-76-0-1712702000000486, 10,791,TO,INMET,A040,-45.92194443,2012-10-24T21:00:00.000-03:00
315,0-2000-0-81734,MAUES,N,,Operante,Automatica,-3.39888888,0-76-0-1302900000000345, 01,25.49,AM,INMET,A122,-57.67388888,2008-04-21T21:00:00.000-03:00
316,0-2000-0-81739,MEDICILANDIA,N,,Operante,Automatica,-3.51083333,0-76-0-1504455000000289, 02,251.68,PA,INMET,A209,-52.96333333,2008-02-16T21:00:00.000-03:00
317,0-2000-0-81855,MINA DO PALITO,,,Pane,Automatica,-6.31999999,0-76-0-1500602000000468, 02,259.88,PA,INMET,A246,-55.78777777,2010-09-27T21:00:00.000-03:00
318,0-2000-0-86751,MINEIROS,N,,Operante,Automatica,-17.45472222,0-76-0-5213103000000277, 10,862,GO,INMET,A026,-52.60111111,2007-11-23T21:00:00.000-03:00
319,0-2000-0-86807,MIRANDA,N,,Operante,Automatica,-20.39555555,0-76-0-5005608000000133, 07,132.49,MS,INMET,A722,-56.43166666,2006-11-01T21:00:00.000-03:00
320,0-2000-0-86720,MOCAMBINHO,N,,Operante,Automatica,-15.08583333,0-76-0-3135050000000270, 05,454,MG,INMET,A539,-44.01611111,2007-11-10T21:00:00.000-03:00
321,0-2000-0-86693,MONTALVANIA,N,,Operante,Automatica,-14.40833333,0-76-0-3142700000000217, 05,519.52,MG,INMET,A526,-44.40416666,2007-06-25T21:00:00.000-03:00
322,0-2000-0-81706,MONTE ALEGRE,N,,Operante,Automatica,-2,0-76-0-1504802000000482, 02,100.53,PA,INMET,A239,-54.07638888,2012-07-05T21:00:00.000-03:00
323,0-2000-0-86670,MONTE ALEGRE DE GOIAS,,,Operante,Automatica,-13.25361111,0-76-0-5213509000000211, 10,552,GO,INMET,A032,-46.89027777,2007-06-06T21:00:00.000-03:00
324,0-2000-0-86870,MONTE VERDE,N,,Operante,Automatica,-22.86166666,0-76-0-3110509000000071, 05,1544.89,MG,INMET,A509,-46.04333333,2004-12-18T21:00:00.000-03:00
325,0-2000-0-81914,MONTEIRO,N,,Operante,Automatica,-7.89444444,0-76-0-2509701000000241, 03,606.39,PB,INMET,A334,-37.12472221,2007-08-21T21:00:00.000-03:00
326,0-2000-0-86740,MONTES CLAROS,N,,Operante,Automatica,-16.68638888,0-76-0-3143302000000038, 05,645.87,MG,INMET,A506,-43.84388888,2002-12-18T22:00:00.000-02:00
327,0-2000-0-81832,MORADA NOVA,N,,Operante,Automatica,-5.0911111,0-76-0-2308708000000243, 03,93,CE,INMET,A332,-38.36472222,2007-08-23T21:00:00.000-03:00
328,0-2000-0-86934,MORRETES,,,Operante,Automatica,-25.50888888,0-76-0-4116208000000317, 08,50.31,PR,INMET,A873,-48.80861111,2008-03-12T21:00:00.000-03:00
329,0-2000-0-86755,MORRINHOS,N,,Operante,Automatica,-17.745066,0-76-0-5213806000000006, 10,751.09,GO,INMET,A003,-49.101698,2001-05-24T21:00:00.000-03:00
330,0-2000-0-81834,MOSSORO,N,,Operante,Automatica,-4.90416666,0-76-0-2408003000000189, 03,29.44,RN,INMET,A318,-37.36694443,2007-05-21T21:00:00.000-03:00
331,0-2000-0-86994,MOSTARDAS,N,,Operante,Automatica,-31.24833333,0-76-0-4312500000000315, 08,3.82,RS,INMET,A878,-50.90638888,2008-03-10T21:00:00.000-03:00
332,0-2000-0-86852,MURIAE,N,,Operante,Automatica,-21.105,0-76-0-3148202000000102, 05,282.79,MG,INMET,A517,-42.37583332,2006-08-29T21:00:00.000-03:00
333,0-2000-0-81839,NATAL,N,,Pane,Automatica,-5.83722221,0-76-0-2408102000000060, 03,47.46,RN,INMET,A304,-35.20805555,2003-02-23T21:00:00.000-03:00
334,0-2000-0-86768,NHUMIRIM,N,,Operante,Automatica,-18.9886111,0-76-0-5003207000000092, 07,102.26,MS,INMET,A717,-56.62277777,2006-08-01T21:00:00.000-03:00
335,0-2000-0-84823,NITEROI,N,,Operante,Automatica,-22.86749999,0-76-0-3303302000000580, 06,6,RJ,INMET,A627,-43.10194444,2018-07-12T21:00:00.000-03:00
336,0-2000-0-86600,NOSSA SENHORA DA GLORIA,N,,Operante,Automatica,-10.20777777,0-76-0-2804508000000543, 04,271,SE,INMET,A453,-37.43194443,2017-03-23T21:00:00.000-03:00
337,0-2000-0-86901,NOVA FATIMA,N,,Pane,Automatica,-23.41527777,0-76-0-4117008000000174, 08,664.31,PR,INMET,A842,-50.57777777,2007-02-07T21:00:00.000-03:00
338,0-2000-0-86889,NOVA FRIBURGO - SALINAS,,,Operante,Automatica,-22.33472221,0-76-0-3303401000000466, 06,1070,RJ,INMET,A624,-42.67694443,2010-09-17T21:00:00.000-03:00
339,0-2000-0-86663,NOVA MARINGA,,,Operante,Automatica,-13.0386111,0-76-0-5108907000000338, 09,334.36,MT,INMET,A928,-57.09222221,2008-04-15T21:00:00.000-03:00
340,0-2000-0-86706,NOVA PORTEIRINHA (JANAUBA),N,,Operante,Automatica,-15.80277777,0-76-0-3135100000000533, 05,532,MG,INMET,A563,-43.29694444,2016-11-18T21:00:00.000-03:00
341,0-2000-0-86919,NOVA TEBAS,N,,Pane,Automatica,-24.43388888,0-76-0-4117271000000164, 08,660,PR,INMET,A822,-51.95388888,2006-12-20T21:00:00.000-03:00
342,0-2000-0-86665,NOVA UBIRATA,,,Operante,Automatica,-13.41111111,0-76-0-5106240000000337, 09,466.48,MT,INMET,A929,-54.75222222,2008-04-12T21:00:00.000-03:00
343,0-2000-0-81812,NOVO ARIPUANA,N,,Operante,Automatica,-8.0911111,0-76-0-1303304000000594, 01,45,AM,INMET,A144,-60.38055554,2019-07-17T21:00:00.000-03:00
344,0-2000-0-86938,NOVO HORIZONTE,N,,Operante,Automatica,-26.40638888,0-76-0-4203600000000432, 08,943.57,SC,INMET,A816,-52.85027777,2008-09-19T21:00:00.000-03:00
345,0-2000-0-81784,NOVO REPARTIMENTO,N,,Pane,Automatica,-4.24388888,0-76-0-1505064000000410, 02,100.76,PA,INMET,A235,-49.93944444,2008-07-22T21:00:00.000-03:00
346,0-2000-0-81675,OBIDOS,N,,Operante,Automatica,-1.88083332,0-76-0-1505106000000481, 02,89.64,PA,INMET,A232,-55.51972221,2012-07-04T21:00:00.000-03:00
347,0-2000-0-81869,OEIRAS,,,Operante,Automatica,-6.97416666,0-76-0-2207009000000409, 03,154.03,PI,INMET,A354,-42.14694444,2008-07-21T21:00:00.000-03:00
348,0-2000-0-81609,OIAPOQUE,N,,Operante,Automatica,3.81361111,0-76-0-1600501000000428, 02,15.14,AP,INMET,A242,-51.8625,2008-09-10T21:00:00.000-03:00
349,0-2000-0-84819,OLIVEIRA,N,,Operante,Automatica,-20.715,0-76-0-3145604000000560, 05,1025,MG,INMET,A570,-44.86444444,2017-10-18T21:00:00.000-03:00
350,0-2000-0-81910,OURICURI,N,,Operante,Automatica,-7.88583333,0-76-0-2609907000000462, 03,457.85,PE,INMET,A366,-40.10277777,2010-08-10T21:00:00.000-03:00
351,0-2000-0-86866,OURINHOS,N,,Operante,Automatica,-23.00055555,0-76-0-3534708000000101, 07,500,SP,INMET,A716,-49.84333333,2006-08-28T21:00:00.000-03:00
352,0-2000-0-86823,OURO BRANCO,N,,Operante,Automatica,-20.55666666,0-76-0-3145901000000091, 05,1048.2,MG,INMET,A513,-43.75611111,2006-07-27T21:00:00.000-03:00
353,0-2000-0-81742,PACAJA,N,,Pane,Automatica,-3.8436111,0-76-0-1505486000000292, 02,89.02,PA,INMET,A210,-50.63805555,2008-02-26T21:00:00.000-03:00
354,0-2000-0-81957,PALMARES,N,,Operante,Automatica,-8.66666666,0-76-0-2610004000000420, 03,164.01,PE,INMET,A357,-35.56805554,2008-09-03T21:00:00.000-03:00
355,0-2000-0-86607,PALMAS,N,,Operante,Automatica,-10.14777777,0-76-0-1721000000000070, 10,267,TO,INMET,A009,-48.31444444,2004-12-16T21:00:00.000-03:00
356,0-2000-0-86953,PALMEIRA DAS MISSOES,,,Operante,Automatica,-27.92027777,0-76-0-4313706000000291, 08,614.11,RS,INMET,A856,-53.31805554,2008-02-25T21:00:00.000-03:00
357,0-2000-0-81995,PALMEIRA DOS INDIOS,,,Operante,Automatica,-9.42027777,0-76-0-2700805000000224, 03,278.01,AL,INMET,A327,-36.62027777,2007-07-10T21:00:00.000-03:00
358,0-2000-0-81994,PAO DE ACUCAR,N,,Operante,Automatica,-9.74916666,0-76-0-2706406000000230, 03,20.83,AL,INMET,A323,-37.43083332,2007-07-13T21:00:00.000-03:00
359,0-2000-0-86747,PARACATU,N,,Operante,Automatica,-17.24444444,0-76-0-3147006000000576, 05,705,MG,INMET,A571,-46.88166666,2018-03-15T21:00:00.000-03:00
360,0-2000-0-81745,PARAGOMINAS,,,Operante,Automatica,-2.90055555,0-76-0-1505502000000258, 02,88,PA,INMET,A212,-47.49499999,2007-10-17T21:00:00.000-03:00
361,0-2000-0-86650,PARANA,N,,Operante,Automatica,-12.615,0-76-0-1716208000000073, 10,284.96,TO,INMET,A010,-47.87194443,2005-03-03T21:00:00.000-03:00
362,0-2000-0-86792,PARANAIBA,N,,Operante,Automatica,-19.69555555,0-76-0-5006309000000137, 07,408.06,MS,INMET,A710,-51.18166666,2006-11-09T21:00:00.000-03:00
363,0-2000-0-86862,PARANAPOEMA,N,,Operante,Automatica,-22.65833333,0-76-0-4118303000000302, 08,308.7,PR,INMET,A850,-52.13444444,2008-03-03T21:00:00.000-03:00
364,0-2000-0-86684,PARANATINGA,N,,Operante,Automatica,-14.42138888,0-76-0-5106307000000160, 09,476.91,MT,INMET,A915,-54.0361111,2006-12-18T21:00:00.000-03:00
365,0-2000-0-86733,PARANOA (COOPA-DF),N,,Operante,Automatica,-16.012222,0-76-0-5300108000000537, 10,1043,DF,INMET,A047,-47.557417,2017-02-06T21:00:00.000-03:00
366,0-2000-0-86913,PARATY,N,,Operante,Automatica,-23.2236111,0-76-0-3303807000000141, 06,3,RJ,INMET,A619,-44.72694443,2006-11-18T21:00:00.000-03:00
367,0-2000-0-86732,PARAUNA,N,,Operante,Automatica,-16.9625,0-76-0-5216403000000324, 10,678.74,GO,INMET,A027,-50.42555554,2008-03-28T21:00:00.000-03:00
368,0-2000-0-81703,PARINTINS,N,,Operante,Automatica,-2.63916666,0-76-0-1303403000000332, 01,18.72,AM,INMET,A123,-56.75611111,2008-04-10T21:00:00.000-03:00
369,0-2000-0-81752,PARNAIBA,N,,Operante,Automatica,-3.08666666,0-76-0-2207702000000051, 03,52.11,PI,INMET,A308,-41.78305554,2003-02-05T22:00:00.000-02:00
370,0-2000-0-81963,PARQUE ESTADUAL CHANDLESS,N,,Pane,Automatica,-9.35833333,0-76-0-1200435000000413, 01,184.51,AC,INMET,A102,-69.92638888,2008-08-04T21:00:00.000-03:00
371,0-2000-0-86873,PASSA QUATRO,N,,Operante,Automatica,-22.39583333,0-76-0-3147600000000201, 05,1017.1,MG,INMET,A529,-44.96194444,2007-05-29T21:00:00.000-03:00
372,0-2000-0-86963,PASSO FUNDO,N,,Operante,Automatica,-28.226805,0-76-0-4314100000000147, 08,680.67,RS,INMET,A839,-52.403582,2006-11-26T21:00:00.000-03:00
373,0-2000-0-86819,PASSOS,N,,Operante,Automatica,-20.745237,0-76-0-3147907000000086, 05,781.7,MG,INMET,A516,-46.633916,2006-07-15T21:00:00.000-03:00
374,0-2000-0-81913,PATOS,N,,Pane,Automatica,-7.07972221,0-76-0-2510808000000235, 03,263.66,PB,INMET,A321,-37.27277777,2007-07-20T21:00:00.000-03:00
375,0-2000-0-84811,PATOS DE MINAS,N,,Operante,Automatica,-18.52055554,0-76-0-3148004000000545, 05,950,MG,INMET,A562,-46.44055555,2017-05-11T21:00:00.000-03:00
376,0-2000-0-86778,PATROCINIO,N,,Operante,Automatica,-18.996684,0-76-0-3148103000000097, 05,978.11,MG,INMET,A523,-46.985935,2006-08-21T21:00:00.000-03:00
377,0-2000-0-81950,PAULISTANA,N,,Operante,Automatica,-8.132288,0-76-0-2207801000000246, 03,376,PI,INMET,A330,-41.142945,2007-08-30T21:00:00.000-03:00
378,0-2000-0-81941,PEDRO AFONSO,N,,Operante,Automatica,-8.9686111,0-76-0-1716505000000170, 10,189.71,TO,INMET,A020,-48.17722221,2007-01-22T21:00:00.000-03:00
379,0-2000-0-86649,PEIXE,N,,Operante,Automatica,-12.01527777,0-76-0-1716604000000150, 10,250.87,TO,INMET,A018,-48.54444444,2006-11-30T21:00:00.000-03:00
380,0-2000-0-81991,PETROLINA,N,,Operante,Automatica,-9.38833333,0-76-0-2611101000000059, 03,372.72,PE,INMET,A307,-40.52333332,2003-02-20T21:00:00.000-03:00
381,0-2000-0-86673,PIATA,N,,Operante,Automatica,-13.155681,0-76-0-2924306000000358, 04,1283.95,BA,INMET,A430,-41.774125,2008-05-02T21:00:00.000-03:00
382,0-2000-0-86876,PICO DO COUTO,N,,Operante,Automatica,-22.46472222,0-76-0-3303906000000121, 06,1777,RJ,INMET,A610,-43.29138888,2006-10-21T21:00:00.000-03:00
383,0-2000-0-81908,PICOS,N,,Operante,Automatica,-7.0711111,0-76-0-2208007000000440, 03,232.91,PI,INMET,A343,-41.40416666,2008-12-11T21:00:00.000-03:00
384,0-2000-0-86868,PIRACICABA,N,,Operante,Automatica,-22.70305555,0-76-0-3538709000000110, 07,566.46,SP,INMET,A726,-47.62333332,2006-09-25T21:00:00.000-03:00
385,0-2000-0-81980,PIRANHAS,N,,Operante,Automatica,-9.62222221,0-76-0-2707107000000559, 03,187,AL,INMET,A371,-37.76722221,2017-09-19T21:00:00.000-03:00
386,0-2000-0-86759,PIRAPORA,N,,Operante,Automatica,-17.258064,0-76-0-3151206000000220, 05,505.32,MG,INMET,A545,-44.835556,2007-07-03T21:00:00.000-03:00
387,0-2000-0-86756,PIRES DO RIO,N,,Operante,Automatica,-17.30416666,0-76-0-5217401000000255, 10,757.27,GO,INMET,A033,-48.28416666,2007-10-11T21:00:00.000-03:00
388,0-2000-0-81794,PIRIPIRI,N,,Operante,Automatica,-4.2761111,0-76-0-2208403000000247, 03,157.89,PI,INMET,A335,-41.79444444,2007-08-30T21:00:00.000-03:00
389,0-2000-0-86603,PIUM,N,,Operante,Automatica,-10.47694443,0-76-0-1717503000000510, 10,161,TO,INMET,A051,-49.62944443,2016-04-05T21:00:00.000-03:00
390,0-2000-0-81737,PLACAS,N,,Operante,Automatica,-3.86416666,0-76-0-1505650000000287, 02,100.45,PA,INMET,A211,-54.21638888,2008-02-13T21:00:00.000-03:00
391,0-2000-0-86926,PLANALTO,,,Operante,Automatica,-25.72194443,0-76-0-4119806000000265, 08,399.1,PR,INMET,A855,-53.74805555,2007-11-06T21:00:00.000-03:00
392,0-2000-0-86614,POCO VERDE,,,Pane,Automatica,-10.73805555,0-76-0-2805505000000327, 04,367.01,SE,INMET,A419,-38.10833333,2008-04-02T21:00:00.000-03:00
393,0-2000-0-86788,POMPEU,N,,Operante,Automatica,-19.23249999,0-76-0-3152006000000504, 05,705,MG,INMET,A560,-44.96416666,2015-08-20T21:00:00.000-03:00
394,0-2000-0-86857,PONTA PORA,N,,Operante,Automatica,-22.5525,0-76-0-5006606000000012, 07,668,MS,INMET,A703,-55.71638888,2001-09-06T21:00:00.000-03:00
395,0-2000-0-86702,PONTES E LACERDA,,,Operante,Automatica,-15.23444444,0-76-0-5106752000000285, 09,272.53,MT,INMET,A937,-59.3461111,2008-01-29T21:00:00.000-03:00
396,0-2000-0-86669,PORANGATU,N,,Operante,Automatica,-13.30944444,0-76-0-5218003000000581, 10,365,GO,INMET,A005,-49.11749999,2001-06-03T21:00:00.000-03:00
397,0-2000-0-86988,PORTO ALEGRE - JARDIM BOTANICO,N,,Operante,Automatica,-30.05361111,0-76-0-4314902000000005, 08,41.18,RS,INMET,A801,-51.17472221,2000-09-21T21:00:00.000-03:00
398,,PORTO ALEGRE- BELEM NOVO,N,,Operante,Automatica,-30.1861111,, 08,3.3,RS,INMET,B807,-51.17805554,2022-12-07T21:00:00.000-03:00
399,0-2000-0-81671,PORTO DE MOZ,N,,Operante,Automatica,-1.82194443,0-76-0-1505908000000599, 02,19,PA,INMET,A245,-52.11166666,2022-04-06T21:00:00.000-03:00
400,0-2000-0-86704,PORTO ESTRELA,,,Operante,Automatica,-15.32472221,0-76-0-5106851000000371, 09,147.75,MT,INMET,A935,-57.22583332,2008-05-29T21:00:00.000-03:00
401,0-2000-0-81637,PORTO GRANDE,,,Operante,Automatica,0.69416666,0-76-0-1600535000000431, 02,84.8,AP,INMET,A244,-51.40388888,2008-09-16T21:00:00.000-03:00
402,0-2000-0-86833,PORTO MURTINHO,N,,Operante,Automatica,-21.70583333,0-76-0-5006903000000122, 07,78.56,MS,INMET,A723,-57.88666666,2006-10-23T21:00:00.000-03:00
403,0-2000-0-86745,PORTO SEGURO,N,,Pane,Automatica,-16.38888888,0-76-0-2925303000000396, 04,86.36,BA,INMET,A427,-39.18249999,2008-07-09T21:00:00.000-03:00
404,0-2000-0-81932,PORTO VELHO,N,,Operante,Automatica,-8.7936111,0-76-0-1100205000000227, 09,86.7,RO,INMET,A925,-63.84583333,2007-07-10T21:00:00.000-03:00
405,0-2000-0-81921,PORTO WALTER,,,Pane,Automatica,-8.26722221,0-76-0-1200393000000457, 01,205.35,AC,INMET,A136,-72.74777777,2009-10-28T21:00:00.000-03:00
406,0-2000-0-86692,POSSE,N,,Operante,Automatica,-14.08916666,0-76-0-5218300000000181, 10,830,GO,INMET,A017,-46.36638888,2007-04-17T21:00:00.000-03:00
407,0-2000-0-86842,PRADOPOLIS,,,Operante,Automatica,-21.33833333,0-76-0-3518859000000346, 07,540.41,SP,INMET,A747,-48.11388888,2008-04-21T21:00:00.000-03:00
408,0-2000-0-81717,PREGUICAS,N,,Operante,Automatica,-2.59222221,0-76-0-2101707000000437, 02,4.62,MA,INMET,A218,-42.7075,2008-11-21T21:00:00.000-03:00
409,0-2000-0-81699,PRESIDENTE FIGUEIREDO,,,Pane,Automatica,-2.05666666,0-76-0-1303536000000343, 01,60.99,AM,INMET,A126,-60.02583332,2008-04-18T21:00:00.000-03:00
410,0-2000-0-86853,PRESIDENTE KENNEDY,,,Operante,Automatica,-21.10083333,0-76-0-3204302000000385, 06,69.12,ES,INMET,A622,-41.03944444,2008-06-17T21:00:00.000-03:00
411,0-2000-0-86863,PRESIDENTE PRUDENTE,N,,Operante,Automatica,-22.11999999,0-76-0-3541406000000050, 07,431.92,SP,INMET,A707,-51.40861111,2003-02-03T22:00:00.000-02:00
412,0-2000-0-86700,PRIMAVERA DO LESTE,N,,Operante,Automatica,-15.57999999,0-76-0-5107040000000566, 09,680,MT,INMET,A923,-54.3811111,2017-10-25T21:00:00.000-03:00
413,,Paty do Alferes - Avelar,N,,Operante,Automatica,-22.34722221,, 06,508,RJ,INMET,A637,-43.41777777,2022-11-09T21:00:00.000-03:00
414,0-2000-0-86982,QUARAI,N,,Operante,Automatica,-30.368578,0-76-0-4315305000000257, 08,113.05,RS,INMET,A831,-56.437115,2007-10-16T21:00:00.000-03:00
415,0-2000-0-86612,QUEIMADAS,N,,Operante,Automatica,-10.98472221,0-76-0-2925808000000366, 04,310.11,BA,INMET,A436,-39.61694443,2008-05-22T21:00:00.000-03:00
416,0-2000-0-86647,QUERENCIA,N,,Operante,Automatica,-12.60305555,0-76-0-5107065000000233, 09,355,MT,INMET,A916,-52.1625,2007-07-17T21:00:00.000-03:00
417,0-2000-0-81799,QUIXADA,N,,Operante,Automatica,-4.97888888,0-76-0-2311306000000577, 03,193,CE,INMET,A369,-39.05722222,2018-03-19T21:00:00.000-03:00
418,0-2000-0-81831,QUIXERAMOBIM,N,,Pane,Automatica,-5.17444443,0-76-0-2311405000000223, 03,221.04,CE,INMET,A325,-39.28944444,2007-07-08T21:00:00.000-03:00
419,0-2000-0-86864,RANCHARIA,N,,Operante,Automatica,-22.37277777,0-76-0-3542206000000103, 07,398.75,SP,INMET,A718,-50.97472221,2006-08-31T21:00:00.000-03:00
420,0-2000-0-86959,RANCHO QUEIMADO,N,,Operante,Automatica,-27.6786111,0-76-0-4214300000000515, 08,881,SC,INMET,A870,-49.04194444,2016-05-30T21:00:00.000-03:00
421,0-2000-0-81958,RECIFE,N,,Pane,Automatica,-8.05916666,0-76-0-2611606000000072, 03,11.3,PE,INMET,A301,-34.95916666,2004-12-21T21:00:00.000-03:00
422,0-2000-0-81937,REDENCAO,N,,Operante,Automatica,-8.04333333,0-76-0-1506139000000593, 02,199,PA,INMET,A254,-50.00694444,2019-07-10T21:00:00.000-03:00
423,0-2000-0-86915,REGISTRO,N,,Operante,Automatica,-24.53305554,0-76-0-3542602000000538, 07,35,SP,INMET,A766,-47.86416666,2017-02-08T21:00:00.000-03:00
424,0-2000-0-81990,REMANSO,N,,Operante,Automatica,-9.62555554,0-76-0-2926004000000321, 04,397.4,BA,INMET,A423,-42.07722221,2008-03-25T21:00:00.000-03:00
425,0-2000-0-86874,RESENDE,N,,Operante,Automatica,-22.45138888,0-76-0-3304201000000114, 06,438.83,RJ,INMET,A609,-44.44499999,2006-09-28T21:00:00.000-03:00
426,0-2000-0-86640,RIBEIRA DO AMPARO,N,,Operante,Automatica,-11.05861111,0-76-0-2926509000000582, 04,182,BA,INMET,A458,-38.44416666,2018-09-19T21:00:00.000-03:00
427,0-2000-0-81965,RIO BRANCO,N,,Operante,Automatica,-9.67972221,0-76-0-1200401000000397, 01,163,AC,INMET,A104,-68.16527777,2008-07-10T21:00:00.000-03:00
428,0-2000-0-86836,RIO BRILHANTE,,,Operante,Automatica,-21.77499999,0-76-0-5007208000000391, 07,324.31,MS,INMET,A743,-54.52805554,2008-06-25T21:00:00.000-03:00
429,0-2000-0-84803,RIO CLARO,N,,Operante,Automatica,-22.653579,0-76-0-3304409000000518, 06,516,RJ,INMET,A626,-44.040916,2016-06-02T21:00:00.000-03:00
430,0-2000-0-86887,RIO DE JANEIRO - FORTE DE COPACABANA,,,Operante,Automatica,-22.98833333,0-76-0-3304557000000187, 06,25.59,RJ,INMET,A652,-43.19055555,2007-05-17T21:00:00.000-03:00
431,0-2000-0-84816,RIO DE JANEIRO - JACAREPAGUA,N,,Operante,Automatica,-22.93999999,0-76-0-3304557000000553, 06,20,RJ,INMET,A636,-43.40277777,2017-08-09T21:00:00.000-03:00
432,0-2000-0-86879,RIO DE JANEIRO - VILA MILITAR,N,,Operante,Automatica,-22.86138888,0-76-0-3304557000000179, 06,30.43,RJ,INMET,A621,-43.41138888,2007-04-12T21:00:00.000-03:00
433,0-2000-0-86914,RIO DE JANEIRO-MARAMBAIA,N,,Operante,Automatica,-23.05027777,0-76-0-3304557000000024, 06,12,RJ,INMET,A602,-43.59555555,2002-11-07T22:00:00.000-02:00
434,0-2000-0-86944,RIO DO CAMPO,N,,Pane,Automatica,-26.93749999,0-76-0-4214508000000312, 08,591.67,SC,INMET,A861,-50.14555555,2008-03-09T21:00:00.000-03:00
435,0-2000-0-86995,RIO GRANDE,N,,Operante,Automatica,-32.07888888,0-76-0-4315602000000014, 08,4.92,RS,INMET,A802,-52.16777777,2001-11-15T22:00:00.000-02:00
436,0-2000-0-86945,RIO NEGRINHO,N,,Operante,Automatica,-26.2486111,0-76-0-4215000000000320, 08,800,SC,INMET,A862,-49.57416666,2008-03-21T21:00:00.000-03:00
437,0-2000-0-86978,RIO PARDO,N,,Operante,Automatica,-29.87222221,0-76-0-4315701000000115, 08,106.99,RS,INMET,A813,-52.38194443,2006-09-29T21:00:00.000-03:00
438,0-2000-0-86721,RIO PARDO DE MINAS,N,,Operante,Automatica,-15.72305554,0-76-0-3155603000000275, 05,850.06,MG,INMET,A551,-42.43583333,2007-11-16T21:00:00.000-03:00
439,0-2000-0-81981,RIO SONO,N,,Operante,Automatica,-9.793363,0-76-0-1718758000000523, 10,291,TO,INMET,A050,-47.132732,2016-08-02T21:00:00.000-03:00
440,0-2000-0-81700,RIO URUBU,N,,Operante,Automatica,-2.6336111,0-76-0-1303536000000390, 01,112.84,AM,INMET,A125,-59.60055555,2008-06-25T21:00:00.000-03:00
441,0-2000-0-86753,RIO VERDE,N,,Operante,Automatica,-17.78527777,0-76-0-5218805000000184, 10,780.11,GO,INMET,A025,-50.965,2007-05-16T21:00:00.000-03:00
442,0-2000-0-81786,RONDON DO PARA,N,,Operante,Automatica,-4.82749999,0-76-0-1506187000000342, 02,203,PA,INMET,A214,-48.1736111,2008-04-16T21:00:00.000-03:00
443,0-2000-0-86728,RONDONOPOLIS,N,,Pane,Automatica,-16.4625,0-76-0-5107602000000065, 09,289.88,MT,INMET,A907,-54.58027777,2003-11-16T21:00:00.000-03:00
444,0-2000-0-86683,ROSARIO OESTE,N,,Operante,Automatica,-14.82888888,0-76-0-5107701000000591, 09,195,MT,INMET,A944,-56.44194444,2019-05-29T21:00:00.000-03:00
445,0-2000-0-81643,S. G. DA CACHOEIRA,N,,Operante,Automatica,-0.125207,0-76-0-1303809000000476, 01,79.67,AM,INMET,A134,-67.061246,2011-08-30T21:00:00.000-03:00
446,0-2000-0-86664,S.J. DO RIO CLARO,N,,Operante,Automatica,-13.45388888,0-76-0-5107305000000062, 09,339.59,MT,INMET,A903,-56.67722221,2003-02-24T21:00:00.000-03:00
447,0-2000-0-86795,SACRAMENTO,N,,Operante,Automatica,-19.87527777,0-76-0-3156908000000095, 05,913.12,MG,INMET,A525,-47.43416666,2006-08-18T21:00:00.000-03:00
448,0-2000-0-81949,SALGUEIRO,N,,Operante,Automatica,-8.05805555,0-76-0-2612208000000558, 03,447,PE,INMET,A370,-39.0961111,2017-09-14T21:00:00.000-03:00
449,0-2000-0-86741,SALINAS,N,,Operante,Automatica,-16.16027777,0-76-0-3157005000000253, 05,487.14,MG,INMET,A552,-42.31027777,2007-09-13T21:00:00.000-03:00
450,0-2000-0-81660,SALINOPOLIS,N,,Operante,Automatica,-0.61888888,0-76-0-1506203000000383, 02,23.18,PA,INMET,A215,-47.35666666,2008-06-13T21:00:00.000-03:00
451,0-2000-0-86703,SALTO DO CEU,,,Operante,Automatica,-15.12472221,0-76-0-5107750000000283, 09,300.83,MT,INMET,A936,-58.12722221,2008-01-23T21:00:00.000-03:00
452,0-2000-0-86678,SALVADOR,N,,Operante,Automatica,-13.005515,0-76-0-2927408000000004, 04,47.56,BA,INMET,A401,-38.50576,2000-05-12T21:00:00.000-03:00
453,0-2000-0-86660,SALVADOR (RADIO FAROL),N,,Operante,Automatica,-12.80833333,0-76-0-2927408000000572, 04,31,BA,INMET,A456,-38.49583333,2018-03-09T21:00:00.000-03:00
454,0-2000-0-81876,SANTA CRUZ,N,,Operante,Automatica,-6.22805554,0-76-0-2411205000000464, 03,227.49,RN,INMET,A367,-36.02666666,2010-08-16T21:00:00.000-03:00
455,0-2000-0-81898,SANTA FE DO ARAGUAIA,N,,Operante,Automatica,-7.124191,0-76-0-1718865000000522, 10,171,TO,INMET,A048,-48.781267,2016-07-29T21:00:00.000-03:00
456,0-2000-0-86977,SANTA MARIA,N,,Operante,Automatica,-29.72499999,0-76-0-4316907000000016, 08,103.1,RS,INMET,A803,-53.72055554,2001-11-25T22:00:00.000-02:00
457,0-2000-0-81871,SANTA MARIA DAS BARREIRAS,N,,Operante,Automatica,-8.72972221,0-76-0-1506583000000598, 02,165,PA,INMET,A256,-49.85638888,2020-12-17T21:00:00.000-03:00
458,0-2000-0-84825,SANTA MARIA MADALENA,N,,Operante,Automatica,-21.95055555,0-76-0-3304607000000584, 06,517,RJ,INMET,A630,-42.01027777,2018-10-15T21:00:00.000-03:00
459,0-2000-0-86633,SANTA RITA DE CASSIA,N,,Operante,Automatica,-11.00333333,0-76-0-2928406000000198, 04,450,BA,INMET,A415,-44.53638888,2007-05-27T21:00:00.000-03:00
460,0-2000-0-86950,SANTA ROSA,N,,Pane,Automatica,-27.89055555,0-76-0-4317202000000138, 08,272.84,RS,INMET,A810,-54.47999999,2006-11-14T21:00:00.000-03:00
461,0-2000-0-86631,SANTA ROSA DO TOCANTINS,N,,Operante,Automatica,-11.42888888,0-76-0-1718907000000500, 10,306,TO,INMET,A052,-48.18499999,2015-08-13T21:00:00.000-03:00
462,0-2000-0-86804,SANTA TERESA,N,,Pane,Automatica,-19.98833333,0-76-0-3204609000000240, 06,975.92,ES,INMET,A613,-40.57944443,2007-08-08T21:00:00.000-03:00
463,0-2000-0-81982,SANTANA DO ARAGUAIA,N,,Operante,Automatica,-9.34055555,0-76-0-1506708000000369, 02,154,PA,INMET,A233,-50.35027777,2008-05-29T21:00:00.000-03:00
464,0-2000-0-86983,SANTANA DO LIVRAMENTO,N,,Operante,Automatica,-30.75055555,0-76-0-4317103000000015, 08,196,RS,INMET,A804,-55.40138888,2001-11-21T22:00:00.000-02:00
465,0-2000-0-81707,SANTAREM,,,Operante,Automatica,-2.5025,0-76-0-1506807000000506, 02,137,PA,INMET,A250,-54.72027777,2015-09-01T21:00:00.000-03:00
466,0-2000-0-86976,SANTIAGO,N,,Operante,Automatica,-29.191599,0-76-0-4317400000000441, 08,390.03,RS,INMET,A833,-54.885653,2009-02-03T21:00:00.000-03:00
467,0-2000-0-86685,SANTO ANTONIO DO LESTE,,,Operante,Automatica,-14.92499999,0-76-0-1381098000000370, 09,662,MT,INMET,A931,-53.88444444,2008-05-29T21:00:00.000-03:00
468,0-2000-0-86952,SANTO AUGUSTO,N,,Operante,Automatica,-27.85444444,0-76-0-4317806000000017, 08,489.67,RS,INMET,A805,-53.7911111,2001-12-04T22:00:00.000-02:00
469,0-2000-0-86960,SAO BORJA,N,,Operante,Automatica,-28.65,0-76-0-4318002000000236, 08,81.08,RS,INMET,A830,-56.01638888,2007-07-20T21:00:00.000-03:00
470,0-2000-0-86845,SAO CARLOS,N,,Operante,Automatica,-21.980353,0-76-0-3548906000000104, 07,859.29,SP,INMET,A711,-47.883927,2006-09-03T21:00:00.000-03:00
471,0-2000-0-86628,SAO FELIX  DO ARAGUAIA,N,,Pane,Automatica,-11.61888888,0-76-0-5107859000000259, 09,201.37,MT,INMET,A921,-50.72777777,2007-10-18T21:00:00.000-03:00
472,0-2000-0-81858,SAO FELIX DO XINGU,N,,Pane,Automatica,-6.63972221,0-76-0-1507300000000532, 02,211,PA,INMET,A216,-51.95694444,2016-11-14T21:00:00.000-03:00
473,0-2000-0-86984,SAO GABRIEL,N,,Operante,Automatica,-30.34138888,0-76-0-4318309000000226, 08,114.89,RS,INMET,A832,-54.31083333,2007-07-10T21:00:00.000-03:00
474,0-2000-0-86789,SAO GABRIEL DO OESTE,N,,Operante,Automatica,-19.42027777,0-76-0-5007695000000159, 07,646,MS,INMET,A732,-54.55305555,2006-12-17T21:00:00.000-03:00
475,0-2000-0-81774,SAO GONCALO,N,,Operante,Automatica,-6.835777,0-76-0-2516201000000264, 03,237.04,PB,INMET,A333,-38.311583,2007-11-05T21:00:00.000-03:00
476,0-2000-0-86849,SAO JOAO DEL REI,N,,Operante,Automatica,-21.10638888,0-76-0-3162500000000078, 05,929.88,MG,INMET,A514,-44.25083333,2006-06-08T21:00:00.000-03:00
477,0-2000-0-81848,SAO JOAO DO PIAUI,N,,Operante,Automatica,-8.36444444,0-76-0-2210003000000244, 03,231,PI,INMET,A331,-42.2525,2007-08-25T21:00:00.000-03:00
478,0-2000-0-86969,SAO JOAQUIM,N,,Operante,Automatica,-28.27555554,0-76-0-4216503000000336, 08,1400.06,SC,INMET,A815,-49.93472221,2008-04-11T21:00:00.000-03:00
479,0-2000-0-86621,SAO JOSE DO XINGU,N,,Operante,Automatica,-10.48416666,0-76-0-5107354000000589, 09,300,MT,INMET,A942,-52.37249999,2019-02-18T21:00:00.000-03:00
480,0-2000-0-86967,SAO JOSE DOS AUSENTES,N,,Operante,Automatica,-28.7486111,0-76-0-4318622000000127, 08,1228.59,RS,INMET,A829,-50.05777777,2006-10-25T21:00:00.000-03:00
481,0-2000-0-81715,SAO LUIS,N,,Operante,Automatica,-2.52666666,0-76-0-2111300000000047, 02,54.8,MA,INMET,A203,-44.21361111,2003-01-28T22:00:00.000-02:00
482,0-2000-0-81997,SAO LUIS DO QUITUNDE,N,,Operante,Automatica,-9.28749999,0-76-0-2707404000000424, 03,13.69,AL,INMET,A356,-35.56583333,2008-09-07T21:00:00.000-03:00
483,0-2000-0-86912,SAO LUIZ DO PARAITINGA,N,,Operante,Automatica,-23.22833332,0-76-0-3535606000000262, 07,862.3,SP,INMET,A740,-45.41694443,2007-10-31T21:00:00.000-03:00
484,0-2000-0-86961,SAO LUIZ GONZAGA,N,,Operante,Automatica,-28.41722221,0-76-0-4318903000000237, 08,245.5,RS,INMET,A852,-54.9625,2007-07-24T21:00:00.000-03:00
485,0-2000-0-86786,SAO MATEUS,N,,Operante,Automatica,-18.6761111,0-76-0-3204906000000124, 06,28.66,ES,INMET,A616,-39.86416666,2006-10-24T21:00:00.000-03:00
486,0-2000-0-86931,SAO MATEUS DO SUL,,,Operante,Automatica,-25.83555555,0-76-0-4125605000000472, 08,780.21,PR,INMET,A874,-50.36888888,2011-04-16T21:00:00.000-03:00
487,0-2000-0-86906,SAO MIGUEL ARCANJO,N,,Operante,Automatica,-23.89083333,0-76-0-3550209000000093, 07,710,SP,INMET,A715,-47.99916666,2006-08-14T21:00:00.000-03:00
488,0-2000-0-86646,SAO MIGUEL DO ARAGUAIA,N,,Operante,Automatica,-12.82055554,0-76-0-5220207000000550, 10,210,GO,INMET,A031,-50.33583333,2017-06-28T21:00:00.000-03:00
489,0-2000-0-86937,SAO MIGUEL DO OESTE,N,,Operante,Automatica,-26.78638888,0-76-0-4217204000000316, 08,647,SC,INMET,A857,-53.51416666,2008-03-11T21:00:00.000-03:00
490,0-2000-0-86909,SAO PAULO - INTERLAGOS,N,,Operante,Automatica,-23.724501,0-76-0-3550308000000573, 07,771,SP,INMET,A771,-46.677501,2018-03-13T21:00:00.000-03:00
491,0-2000-0-86910,SAO PAULO - MIRANTE,N,,Operante,Automatica,-23.49638888,0-76-0-3550308000000089, 07,785.64,SP,INMET,A701,-46.61999999,2006-07-24T21:00:00.000-03:00
492,0-2000-0-81989,SAO RAIMUNDO NONATO,,,Operante,Automatica,-9.03305554,0-76-0-2210607000000294, 03,385,PI,INMET,A345,-42.70111111,2008-02-26T21:00:00.000-03:00
493,0-2000-0-86739,SAO ROMAO,N,,Operante,Automatica,-16.36277777,0-76-0-3164209000000218, 05,490.29,MG,INMET,A547,-45.12388888,2007-06-29T21:00:00.000-03:00
494,0-2000-0-86811,SAO SEBASTIAO DO PARAISO,N,,Operante,Automatica,-20.91,0-76-0-3164704000000501, 05,845,MG,INMET,A561,-47.11416666,2015-08-16T21:00:00.000-03:00
495,0-2000-0-84828,SAO SIMAO,N,,Operante,Automatica,-21.46111111,0-76-0-3550902000000592, 07,620,SP,INMET,A770,-47.57944443,2019-07-02T21:00:00.000-03:00
496,0-2000-0-86773,SAO SIMAO,N,,Operante,Automatica,-18.969142,0-76-0-5220405000000084, 10,492.45,GO,INMET,A011,-50.633449,2006-07-14T21:00:00.000-03:00
497,0-2000-0-84802,SAO VICENTE DO SUL,N,,Operante,Automatica,-29.70222222,0-76-0-4319802000000511, 08,134,RS,INMET,A889,-54.69444444,2016-04-05T21:00:00.000-03:00
498,0-2000-0-86667,SAPEZAL,N,,Operante,Automatica,-13.30388888,0-76-0-5107875000000563, 09,105,MT,INMET,A911,-58.76333333,2017-10-19T21:00:00.000-03:00
499,0-2000-0-86885,SAQUAREMA - SAMPAIO CORREIA,N,,Operante,Automatica,-22.8711111,0-76-0-3305505000000507, 06,26,RJ,INMET,A667,-42.60888888,2015-09-01T21:00:00.000-03:00
500,0-2000-0-86611,SENHOR DO BONFIM,N,,Operante,Automatica,-10.44305555,0-76-0-2930105000000322, 04,532.09,BA,INMET,A428,-40.14833333,2008-03-26T21:00:00.000-03:00
501,0-2000-0-84801,SERAFINA CORREA,N,,Operante,Automatica,-28.70472222,0-76-0-4320404000000509, 08,485.29,RS,INMET,A894,-51.87083332,2016-03-31T21:00:00.000-03:00
502,0-2000-0-86878,SEROPEDICA-ECOLOGIA AGRICOLA,N,,Operante,Automatica,-22.75777777,0-76-0-3305554000000002, 06,35,RJ,INMET,A601,-43.68472221,2000-05-23T21:00:00.000-03:00
503,0-2000-0-86763,SERRA DOS AIMORES,N,,Operante,Automatica,-17.79888888,0-76-0-3166709000000096, 05,211.97,MG,INMET,A522,-40.25,2006-08-20T21:00:00.000-03:00
504,0-2000-0-81860,SERRA DOS CARAJAS,N,,Pane,Automatica,-6.07749999,0-76-0-1505536000000418, 02,707,PA,INMET,A230,-50.14222221,2008-09-02T21:00:00.000-03:00
505,0-2000-0-86641,SERRA NOVA DOURADA,N,,Operante,Automatica,-11.98777777,0-76-0-5100359000000590, 09,441,MT,INMET,A943,-51.4261111,2019-03-28T21:00:00.000-03:00
506,0-2000-0-81912,SERRA TALHADA,,,Operante,Automatica,-7.95416666,0-76-0-2613909000000395, 03,499.02,PE,INMET,A350,-38.29499999,2008-07-08T21:00:00.000-03:00
507,0-2000-0-86637,SERRINHA,,,Operante,Automatica,-11.66472222,0-76-0-2930501000000361, 04,337.79,BA,INMET,A441,-39.02305554,2008-05-08T21:00:00.000-03:00
508,0-2000-0-86790,SETE LAGOAS,N,,Operante,Automatica,-19.45527777,0-76-0-3167202000000520, 05,719,MG,INMET,A569,-44.17333332,2016-06-09T21:00:00.000-03:00
509,0-2000-0-86895,SETE QUEDAS,,,Operante,Automatica,-23.96694443,0-76-0-5007703000000376, 07,398.4,MS,INMET,A751,-55.02416666,2008-06-02T21:00:00.000-03:00
510,0-2000-0-86809,SIDROLANDIA,,,Operante,Automatica,-20.98166666,0-76-0-5007901000000434, 07,471.43,MS,INMET,A754,-54.97194443,2008-09-28T21:00:00.000-03:00
511,0-2000-0-86893,SILVA JARDIM,N,,Operante,Automatica,-22.64583333,0-76-0-3305604000000505, 06,19,RJ,INMET,A659,-42.41555555,2015-08-27T21:00:00.000-03:00
512,0-2000-0-86735,SILVANIA,,,Operante,Automatica,-16.67972221,0-76-0-5220603000000469, 10,952,GO,INMET,A037,-48.61805554,2010-10-07T21:00:00.000-03:00
513,0-2000-0-86626,SINOP,N,,Operante,Automatica,-11.98222221,0-76-0-5107909000000129, 09,366.57,MT,INMET,A917,-55.56611111,2006-10-28T21:00:00.000-03:00
514,0-2000-0-81754,SOBRAL,N,,Operante,Automatica,-3.74805555,0-76-0-2312908000000054, 03,92.07,CE,INMET,A306,-40.34583333,2003-02-11T22:00:00.000-02:00
515,0-2000-0-86964,SOLEDADE,N,,Operante,Automatica,-28.859211,0-76-0-4320800000000301, 08,660.44,RS,INMET,A837,-52.542387,2008-02-29T21:00:00.000-03:00
516,0-2000-0-86769,SONORA,,,Operante,Automatica,-17.63527777,0-76-0-5007935000000489, 07,495.25,MS,INMET,A761,-54.76055555,2012-11-29T21:00:00.000-03:00
517,0-2000-0-86907,SOROCABA,N,,Operante,Automatica,-23.4261111,0-76-0-3552205000000098, 07,609.33,SP,INMET,A713,-47.58555555,2006-08-21T21:00:00.000-03:00
518,0-2000-0-86645,SORRISO,N,,Operante,Automatica,-12.555,0-76-0-5107925000000035, 09,379.31,MT,INMET,A904,-55.72277777,2002-12-15T22:00:00.000-02:00
519,0-2000-0-81658,SOURE,N,,Pane,Automatica,-0.72777777,0-76-0-1507904000000352, 02,12.54,PA,INMET,A227,-48.51583333,2008-04-26T21:00:00.000-03:00
520,0-2000-0-81917,SURUBIM,N,,Operante,Automatica,-7.83972221,0-76-0-2614501000000310, 03,421.44,PE,INMET,A328,-35.80111111,2008-03-08T21:00:00.000-03:00
521,0-2000-0-86998,Santa Vitoria do Palmar - Barra do Chui,N,,Operante,Automatica,-33.74222221,0-76-0-4305439000000309, 08,7.41,RS,INMET,A899,-53.37222221,2008-03-07T21:00:00.000-03:00
522,0-2000-0-86682,TANGARA DA SERRA,N,,Operante,Automatica,-14.65,0-76-0-5107958000000030, 09,440.01,MT,INMET,A902,-57.43166666,2002-12-10T22:00:00.000-02:00
523,0-2000-0-81872,TAUA,N,,Pane,Automatica,-6.01749999,0-76-0-2313302000000228, 03,410.87,CE,INMET,A324,-40.28138888,2007-07-11T21:00:00.000-03:00
524,0-2000-0-86911,TAUBATE,N,,Operante,Automatica,-23.04166666,0-76-0-3554102000000162, 07,582.26,SP,INMET,A728,-45.52083332,2006-12-19T21:00:00.000-03:00
525,0-2000-0-86762,TEOFILO OTONI,N,,Operante,Automatica,-17.89284,0-76-0-3168606000000099, 05,467.17,MG,INMET,A527,-41.515423,2006-08-24T21:00:00.000-03:00
526,0-2000-0-81827,TERESINA,N,,Operante,Automatica,-5.03472221,0-76-0-2211001000000069, 03,75.23,PI,INMET,A312,-42.80138888,2004-11-23T21:00:00.000-03:00
527,0-2000-0-86888,TERESOPOLIS-PARQUE NACIONAL,N,,Operante,Automatica,-22.4486111,0-76-0-3305802000000131, 06,981,RJ,INMET,A618,-42.98694444,2006-10-31T21:00:00.000-03:00
528,0-2000-0-86987,TEUTONIA,,,Operante,Automatica,-29.44916666,0-76-0-4321451000000484, 08,81,RS,INMET,A882,-51.82333332,2012-10-03T21:00:00.000-03:00
529,0-2000-0-81753,TIANGUA,N,,Operante,Automatica,-3.73222221,0-76-0-2313401000000574, 03,756,CE,INMET,A368,-41.01194444,2018-03-14T21:00:00.000-03:00
530,0-2000-0-86801,TIMOTEO,N,,Operante,Automatica,-19.57388888,0-76-0-3168705000000075, 05,493.42,MG,INMET,A511,-42.62249999,2006-02-21T21:00:00.000-03:00
531,0-2000-0-81711,TOME ACU,N,,Operante,Automatica,-2.59249999,0-76-0-1508001000000256, 02,42.95,PA,INMET,A213,-48.36055555,2007-10-13T21:00:00.000-03:00
532,0-2000-0-86981,TORRES,N,,Operante,Automatica,-29.35027777,0-76-0-4321501000000077, 08,8.44,RS,INMET,A808,-49.73333333,2006-05-31T21:00:00.000-03:00
533,0-2000-0-86990,TRAMANDAI,N,,Operante,Automatica,-30.01027777,0-76-0-4321600000000311, 08,4.56,RS,INMET,A834,-50.13583333,2008-03-08T21:00:00.000-03:00
534,0-2000-0-86813,TRES LAGOAS,N,,Operante,Automatica,-20.79499999,0-76-0-5008305000000011, 07,328.94,MS,INMET,A704,-51.71333333,2001-09-02T21:00:00.000-03:00
535,0-2000-0-86779,TRES MARIAS,N,,Operante,Automatica,-18.200855,0-76-0-3169356000000100, 05,931.01,MG,INMET,A528,-45.459836,2006-08-24T21:00:00.000-03:00
536,0-2000-0-84804,TRES RIOS,N,,Operante,Automatica,-22.09833333,0-76-0-3306008000000519, 06,295,RJ,INMET,A625,-43.20833333,2016-06-07T21:00:00.000-03:00
537,0-2000-0-81859,TUCUMA,,,Pane,Automatica,-6.74333333,0-76-0-1508084000000404, 02,320.93,PA,INMET,A234,-51.14194444,2008-07-17T21:00:00.000-03:00
538,0-2000-0-81743,TUCURUI,N,,Operante,Automatica,-3.82277777,0-76-0-1508100000000300, 02,137.94,PA,INMET,A229,-49.67499999,2008-02-29T21:00:00.000-03:00
539,0-2000-0-84812,TUPA,N,,Operante,Automatica,-21.927251,0-76-0-3555000000000546, 07,498,SP,INMET,A768,-50.490251,2017-05-11T21:00:00.000-03:00
540,0-2000-0-84805,TUPANCIRETA,N,,Operante,Automatica,-29.08944444,0-76-0-4322202000000526, 08,462,RS,INMET,A886,-53.82666666,2016-08-10T21:00:00.000-03:00
541,0-2000-0-81687,TURIACU,N,,Operante,Automatica,-1.66111111,0-76-0-2112407000000380, 02,35.86,MA,INMET,A219,-45.37249999,2008-06-09T21:00:00.000-03:00
542,0-2000-0-84814,UBERABA,N,,Operante,Automatica,-19.71,0-76-0-3170107000000549, 05,778,MG,INMET,A568,-47.96194444,2017-05-18T21:00:00.000-03:00
543,0-2000-0-86776,UBERLANDIA,N,,Operante,Automatica,-18.91694443,0-76-0-3170206000000036, 05,874.77,MG,INMET,A507,-48.25555555,2002-12-17T22:00:00.000-02:00
544,0-2000-0-86724,UNA,,,Operante,Automatica,-15.28027777,0-76-0-2932507000000389, 04,74.08,BA,INMET,A437,-39.09138888,2008-06-24T21:00:00.000-03:00
545,0-2000-0-86738,UNAI,N,,Operante,Automatica,-16.55416666,0-76-0-3170404000000212, 05,640.85,MG,INMET,A542,-46.88194443,2007-06-15T21:00:00.000-03:00
546,0-2000-0-81702,URUCARA,,,Operante,Automatica,-2.53472221,0-76-0-1304302000000341, 01,18.49,AM,INMET,A124,-57.75805555,2008-04-16T21:00:00.000-03:00
547,0-2000-0-81905,URUCUI,N,,Operante,Automatica,-7.44138888,0-76-0-2211209000000305, 03,398.83,PI,INMET,A346,-44.34499999,2008-03-05T21:00:00.000-03:00
548,0-2000-0-86973,URUGUAIANA,N,,Operante,Automatica,-29.83999999,0-76-0-4322400000000112, 08,74.29,RS,INMET,A809,-57.08194443,2006-09-27T21:00:00.000-03:00
549,0-2000-0-86970,URUSSANGA,N,,Operante,Automatica,-28.53249999,0-76-0-4219002000000368, 08,40.56,SC,INMET,A814,-49.31527777,2008-05-28T21:00:00.000-03:00
550,0-2000-0-86966,VACARIA,,,Operante,Automatica,-28.51361111,0-76-0-4322509000000350, 08,969.89,RS,INMET,A880,-50.88277777,2008-04-25T21:00:00.000-03:00
551,0-2000-0-86875,VALENCA,N,,Operante,Automatica,-22.35805555,0-76-0-3306107000000111, 06,370,RJ,INMET,A611,-43.69555555,2006-09-26T21:00:00.000-03:00
552,0-2000-0-86676,VALENCA,,,Operante,Automatica,-13.3436111,0-76-0-2932903000000451, 04,93.12,BA,INMET,A444,-39.12666666,2009-06-28T21:00:00.000-03:00
553,0-2000-0-81870,VALENCA DO PIAUI,N,,Operante,Automatica,-6.4236111,0-76-0-2211308000000444, 03,372,PI,INMET,A363,-41.74888888,2009-04-17T21:00:00.000-03:00
554,0-2000-0-86838,VALPARAISO,N,,Operante,Automatica,-21.31916666,0-76-0-3556305000000245, 07,381.9,SP,INMET,A734,-50.93027777,2007-08-29T21:00:00.000-03:00
555,0-2000-0-86848,VARGINHA,N,,Operante,Automatica,-21.56638888,0-76-0-3170701000000083, 05,949.78,MG,INMET,A515,-45.40416666,2006-07-12T21:00:00.000-03:00
556,0-2000-0-84809,VENDA NOVA DO IMIGRANTE,N,,Operante,Automatica,-20.38555555,0-76-0-3205069000000539, 06,722,ES,INMET,A633,-41.18999999,2017-02-09T21:00:00.000-03:00
557,0-2000-0-86920,VENTANIA,,,Operante,Automatica,-24.28027777,0-76-0-4128534000000471, 08,1093.41,PR,INMET,A872,-50.21027777,2011-04-14T21:00:00.000-03:00
558,0-2000-0-86824,VICOSA,N,,Operante,Automatica,-20.762607,0-76-0-3171303000000074, 05,697.64,MG,INMET,A510,-42.864013,2005-09-14T21:00:00.000-03:00
559,0-2000-0-86701,VILA BELA DA SANTISSIMA TRINDADE,N,,Operante,Automatica,-15.06277777,0-76-0-5105507000000153, 09,213,MT,INMET,A922,-59.87305554,2006-11-30T21:00:00.000-03:00
560,0-2000-0-86831,VILA VELHA,N,,Operante,Automatica,-20.46694443,0-76-0-3205200000000540, 06,25,ES,INMET,A634,-40.40388888,2017-02-14T21:00:00.000-03:00
561,0-2000-0-86642,VILHENA,,,Operante,Automatica,-12.73499999,0-76-0-1100304000000416, 09,583.3,RO,INMET,A938,-60.15777777,2008-08-25T21:00:00.000-03:00
562,0-2000-0-86830,VITORIA,N,,Operante,Automatica,-20.27083332,0-76-0-3205309000000130, 06,9,ES,INMET,A612,-40.30583333,2006-10-30T21:00:00.000-03:00
563,0-2000-0-86697,VITORIA DA CONQUISTA,N,,Operante,Automatica,-14.88638888,0-76-0-2933307000000204, 04,879.38,BA,INMET,A414,-40.80138888,2007-05-31T21:00:00.000-03:00
564,0-2000-0-86940,XANXERE,N,,Operante,Automatica,-26.938666,0-76-0-4219507000000318, 08,878.74,SC,INMET,A858,-52.39809,2008-03-14T21:00:00.000-03:00
565,0-2000-0-81896,XINGUARA,N,,Operante,Automatica,-7.11055555,0-76-0-1508407000000527, 02,245,PA,INMET,A247,-49.9261111,2016-09-10T21:00:00.000-03:00
566,0-2000-0-81747,ZE DOCA,N,,Operante,Automatica,-3.26916666,0-76-0-2114007000000596, 02,45.5,MA,INMET,A255,-45.65111111,2019-09-17T21:00:00.000-03:00
